{
  "count": 8336,
  "stops": [
    {
      "StopNo": 50004,
      "Name": "EB BEACH AVE FS NICOLA ST",
      "BayNo": "N",
      "City": "VANCOUVER",
      "OnStreet": "BEACH AVE",
      "AtStreet": "NICOLA ST",
      "Latitude": 49.282078,
      "Longitude": -123.140426,
      "WheelchairAccess": 0,
      "Distance": 1973,
      "Routes": ""
    },
    {
      "StopNo": 50005,
      "Name": "EB BEACH AVE FS JERVIS ST",
      "BayNo": "N",
      "City": "VANCOUVER",
      "OnStreet": "BEACH AVE",
      "AtStreet": "JERVIS ST",
      "Latitude": 49.280306,
      "Longitude": -123.138296,
      "WheelchairAccess": 1,
      "Distance": 1733,
      "Routes": ""
    },
    {
      "StopNo": 50006,
      "Name": "EB BEACH AVE FS BUTE ST",
      "BayNo": "N",
      "City": "VANCOUVER",
      "OnStreet": "BEACH AVE",
      "AtStreet": "BUTE ST",
      "Latitude": 49.278937,
      "Longitude": -123.136907,
      "WheelchairAccess": 1,
      "Distance": 1555,
      "Routes": ""
    },
    {
      "StopNo": 50007,
      "Name": "EB BEACH AVE FS THURLOW ST",
      "BayNo": "N",
      "City": "VANCOUVER",
      "OnStreet": "BEACH AVE",
      "AtStreet": "THURLOW ST",
      "Latitude": 49.277297,
      "Longitude": -123.135251,
      "WheelchairAccess": 1,
      "Distance": 1345,
      "Routes": ""
    },
    {
      "StopNo": 50011,
      "Name": "EB DAVIE ST FS HOWE ST",
      "BayNo": "N",
      "City": "VANCOUVER",
      "OnStreet": "DAVIE ST",
      "AtStreet": "HOWE ST",
      "Latitude": 49.27755,
      "Longitude": -123.126971,
      "WheelchairAccess": 1,
      "Distance": 1331,
      "Routes": "006"
    },
    {
      "StopNo": 50013,
      "Name": "EB PACIFIC ST FS RICHARDS ST",
      "BayNo": "N",
      "City": "VANCOUVER",
      "OnStreet": "PACIFIC ST",
      "AtStreet": "RICHARDS ST",
      "Latitude": 49.273529,
      "Longitude": -123.127316,
      "WheelchairAccess": 1,
      "Distance": 1846,
      "Routes": "023"
    },
    {
      "StopNo": 50014,
      "Name": "EB PACIFIC BLVD FS HOMER ST",
      "BayNo": "N",
      "City": "VANCOUVER",
      "OnStreet": "PACIFIC BLVD",
      "AtStreet": "HOMER ST",
      "Latitude": 49.272929,
      "Longitude": -123.125546,
      "WheelchairAccess": 1,
      "Distance": 1702,
      "Routes": "023"
    },
    {
      "StopNo": 50015,
      "Name": "EB PACIFIC BLVD FS DRAKE ST",
      "BayNo": "N",
      "City": "VANCOUVER",
      "OnStreet": "PACIFIC BLVD",
      "AtStreet": "DRAKE ST",
      "Latitude": 49.273429,
      "Longitude": -123.123135,
      "WheelchairAccess": 1,
      "Distance": 1579,
      "Routes": "023"
    },
    {
      "StopNo": 50016,
      "Name": "YALETOWN-ROUNDHOUSE STN BAY 4",
      "BayNo": "4",
      "City": "VANCOUVER",
      "OnStreet": "YALETOWN-ROUNDHOUSE STN",
      "AtStreet": "BAY 4",
      "Latitude": 49.274036,
      "Longitude": -123.120842,
      "WheelchairAccess": 1,
      "Distance": 1483,
      "Routes": "023"
    },
    {
      "StopNo": 50021,
      "Name": "EB E PENDER ST FS CARRALL ST",
      "BayNo": "N",
      "City": "VANCOUVER",
      "OnStreet": "E PENDER ST",
      "AtStreet": "CARRALL ST",
      "Latitude": 49.280394,
      "Longitude": -123.103799,
      "WheelchairAccess": 1,
      "Distance": 1633,
      "Routes": "019, 022, N19"
    },
    {
      "StopNo": 50022,
      "Name": "NB COLUMBIA ST FS E PENDER ST",
      "BayNo": "N",
      "City": "VANCOUVER",
      "OnStreet": "COLUMBIA ST",
      "AtStreet": "E PENDER ST",
      "Latitude": 49.280772,
      "Longitude": -123.102196,
      "WheelchairAccess": 1,
      "Distance": 1684,
      "Routes": "050"
    },
    {
      "StopNo": 50023,
      "Name": "YALETOWN-ROUNDHOUSE STN BAY 1",
      "BayNo": "1",
      "City": "VANCOUVER",
      "OnStreet": "YALETOWN-ROUNDHOUSE STN",
      "AtStreet": "BAY 1",
      "Latitude": 49.274863,
      "Longitude": -123.122521,
      "WheelchairAccess": 1,
      "Distance": 1636,
      "Routes": "006"
    },
    {
      "StopNo": 50024,
      "Name": "WB DAVIE ST FS RICHARDS ST",
      "BayNo": "N",
      "City": "VANCOUVER",
      "OnStreet": "DAVIE ST",
      "AtStreet": "RICHARDS ST",
      "Latitude": 49.276179,
      "Longitude": -123.124555,
      "WheelchairAccess": 1,
      "Distance": 1842,
      "Routes": "006"
    },
    {
      "StopNo": 50025,
      "Name": "WB DAVIE ST FS GRANVILLE ST",
      "BayNo": "N",
      "City": "VANCOUVER",
      "OnStreet": "DAVIE ST",
      "AtStreet": "GRANVILLE ST",
      "Latitude": 49.277437,
      "Longitude": -123.126514,
      "WheelchairAccess": 1,
      "Distance": 1324,
      "Routes": "006"
    },
    {
      "StopNo": 50026,
      "Name": "WB DAVIE ST FS HOWE ST",
      "BayNo": "N",
      "City": "VANCOUVER",
      "OnStreet": "DAVIE ST",
      "AtStreet": "HOWE ST",
      "Latitude": 49.278073,
      "Longitude": -123.127493,
      "WheelchairAccess": 1,
      "Distance": 1383,
      "Routes": "006"
    },
    {
      "StopNo": 50028,
      "Name": "NB BURRARD ST FS HELMCKEN ST",
      "BayNo": "N",
      "City": "VANCOUVER",
      "OnStreet": "BURRARD ST",
      "AtStreet": "HELMCKEN ST",
      "Latitude": 49.28033,
      "Longitude": -123.12706,
      "WheelchairAccess": 1,
      "Distance": 1636,
      "Routes": ""
    },
    {
      "StopNo": 50029,
      "Name": "NB BURRARD ST FS NELSON ST",
      "BayNo": "N",
      "City": "VANCOUVER",
      "OnStreet": "BURRARD ST",
      "AtStreet": "NELSON ST",
      "Latitude": 49.281364,
      "Longitude": -123.125521,
      "WheelchairAccess": 1,
      "Distance": 1767,
      "Routes": ""
    },
    {
      "StopNo": 50037,
      "Name": "EB W CORDOVA ST NS ABBOTT ST",
      "BayNo": "N",
      "City": "VANCOUVER",
      "OnStreet": "W CORDOVA ST",
      "AtStreet": "ABBOTT ST",
      "Latitude": 49.282943,
      "Longitude": -123.107243,
      "WheelchairAccess": 1,
      "Distance": 1922,
      "Routes": ""
    },
    {
      "StopNo": 50038,
      "Name": "WB POWELL ST FS COLUMBIA ST",
      "BayNo": "N",
      "City": "VANCOUVER",
      "OnStreet": "POWELL ST",
      "AtStreet": "COLUMBIA ST",
      "Latitude": 49.283285,
      "Longitude": -123.102896,
      "WheelchairAccess": 1,
      "Distance": 1957,
      "Routes": "050"
    },
    {
      "StopNo": 50045,
      "Name": "SB BURRARD ST FS ROBSON ST",
      "BayNo": "N",
      "City": "VANCOUVER",
      "OnStreet": "BURRARD ST",
      "AtStreet": "ROBSON ST",
      "Latitude": 49.283087,
      "Longitude": -123.123336,
      "WheelchairAccess": 1,
      "Distance": 1987,
      "Routes": "002, N22"
    },
    {
      "StopNo": 50046,
      "Name": "SB BURRARD ST NS BARCLAY ST",
      "BayNo": "N",
      "City": "VANCOUVER",
      "OnStreet": "BURRARD ST",
      "AtStreet": "BARCLAY ST",
      "Latitude": 49.282068,
      "Longitude": -123.12488,
      "WheelchairAccess": 1,
      "Distance": 1852,
      "Routes": "002, N22"
    },
    {
      "StopNo": 50047,
      "Name": "SB BURRARD ST FS NELSON ST",
      "BayNo": "N",
      "City": "VANCOUVER",
      "OnStreet": "BURRARD ST",
      "AtStreet": "NELSON ST",
      "Latitude": 49.280981,
      "Longitude": -123.126516,
      "WheelchairAccess": 1,
      "Distance": 1713,
      "Routes": "002, 044, N22"
    },
    {
      "StopNo": 50048,
      "Name": "WB DAVIE ST FS BURRARD ST",
      "BayNo": "N",
      "City": "VANCOUVER",
      "OnStreet": "DAVIE ST",
      "AtStreet": "BURRARD ST",
      "Latitude": 49.279449,
      "Longitude": -123.129617,
      "WheelchairAccess": 1,
      "Distance": 1526,
      "Routes": "006"
    },
    {
      "StopNo": 50049,
      "Name": "WB DAVIE ST FS THURLOW ST",
      "BayNo": "N",
      "City": "VANCOUVER",
      "OnStreet": "DAVIE ST",
      "AtStreet": "THURLOW ST",
      "Latitude": 49.280756,
      "Longitude": -123.131638,
      "WheelchairAccess": 1,
      "Distance": 1676,
      "Routes": "006"
    },
    {
      "StopNo": 50050,
      "Name": "WB DAVIE ST FS BUTE ST",
      "BayNo": "N",
      "City": "VANCOUVER",
      "OnStreet": "DAVIE ST",
      "AtStreet": "BUTE ST",
      "Latitude": 49.282009,
      "Longitude": -123.133574,
      "WheelchairAccess": 1,
      "Distance": 1830,
      "Routes": "006"
    },
    {
      "StopNo": 50051,
      "Name": "WB DAVIE ST FS JERVIS ST",
      "BayNo": "N",
      "City": "VANCOUVER",
      "OnStreet": "DAVIE ST",
      "AtStreet": "JERVIS ST",
      "Latitude": 49.283006,
      "Longitude": -123.135121,
      "WheelchairAccess": 1,
      "Distance": 1959,
      "Routes": "006"
    },
    {
      "StopNo": 50054,
      "Name": "EB W 16 AVE FS TRUTCH ST",
      "BayNo": "N",
      "City": "VANCOUVER",
      "OnStreet": "W 16 AVE",
      "AtStreet": "TRUTCH ST",
      "Latitude": 49.257636,
      "Longitude": -123.175459,
      "WheelchairAccess": 1,
      "Distance": 1745,
      "Routes": "033"
    },
    {
      "StopNo": 50055,
      "Name": "EB W 16 AVE FS CARNARVON ST",
      "BayNo": "N",
      "City": "VANCOUVER",
      "OnStreet": "W 16 AVE",
      "AtStreet": "CARNARVON ST",
      "Latitude": 49.257583,
      "Longitude": -123.17185,
      "WheelchairAccess": 1,
      "Distance": 1530,
      "Routes": "002, 033"
    },
    {
      "StopNo": 50056,
      "Name": "NB MACDONALD ST FS W 16 AVE",
      "BayNo": "N",
      "City": "VANCOUVER",
      "OnStreet": "MACDONALD ST",
      "AtStreet": "W 16 AVE",
      "Latitude": 49.258079,
      "Longitude": -123.168299,
      "WheelchairAccess": 1,
      "Distance": 1294,
      "Routes": "002, N22"
    },
    {
      "StopNo": 50057,
      "Name": "NB MACDONALD ST FS W 14 AVE",
      "BayNo": "N",
      "City": "VANCOUVER",
      "OnStreet": "MACDONALD ST",
      "AtStreet": "W 14 AVE",
      "Latitude": 49.259869,
      "Longitude": -123.168239,
      "WheelchairAccess": 0,
      "Distance": 1170,
      "Routes": ""
    },
    {
      "StopNo": 50058,
      "Name": "NB MACDONALD ST FS W 12 AVE",
      "BayNo": "N",
      "City": "VANCOUVER",
      "OnStreet": "MACDONALD ST",
      "AtStreet": "W 12 AVE",
      "Latitude": 49.261778,
      "Longitude": -123.168164,
      "WheelchairAccess": 0,
      "Distance": 1061,
      "Routes": "002, N22"
    },
    {
      "StopNo": 50059,
      "Name": "NB MACDONALD ST FS W 10 AVE",
      "BayNo": "N",
      "City": "VANCOUVER",
      "OnStreet": "MACDONALD ST",
      "AtStreet": "W 10 AVE",
      "Latitude": 49.263469,
      "Longitude": -123.168097,
      "WheelchairAccess": 1,
      "Distance": 993,
      "Routes": ""
    },
    {
      "StopNo": 50060,
      "Name": "NB MACDONALD ST FS W BROADWAY",
      "BayNo": "N",
      "City": "VANCOUVER",
      "OnStreet": "MACDONALD ST",
      "AtStreet": "W BROADWAY",
      "Latitude": 49.264458,
      "Longitude": -123.168174,
      "WheelchairAccess": 1,
      "Distance": 977,
      "Routes": "002, 014, N22"
    },
    {
      "StopNo": 50061,
      "Name": "NB MACDONALD ST FS W 7 AVE",
      "BayNo": "N",
      "City": "VANCOUVER",
      "OnStreet": "MACDONALD ST",
      "AtStreet": "W 7 AVE",
      "Latitude": 49.266074,
      "Longitude": -123.168302,
      "WheelchairAccess": 1,
      "Distance": 977,
      "Routes": "002, 014, N22"
    },
    {
      "StopNo": 50062,
      "Name": "NB MACDONALD ST FS W 5 AVE",
      "BayNo": "N",
      "City": "VANCOUVER",
      "OnStreet": "MACDONALD ST",
      "AtStreet": "W 5 AVE",
      "Latitude": 49.267795,
      "Longitude": -123.16824,
      "WheelchairAccess": 0,
      "Distance": 998,
      "Routes": ""
    },
    {
      "StopNo": 50063,
      "Name": "NB MACDONALD ST FS W 4 AVE",
      "BayNo": "N",
      "City": "VANCOUVER",
      "OnStreet": "MACDONALD ST",
      "AtStreet": "W 4 AVE",
      "Latitude": 49.268707,
      "Longitude": -123.168204,
      "WheelchairAccess": 1,
      "Distance": 1024,
      "Routes": "002, N22"
    },
    {
      "StopNo": 50064,
      "Name": "NB MACDONALD ST FS W 2 AVE",
      "BayNo": "N",
      "City": "VANCOUVER",
      "OnStreet": "MACDONALD ST",
      "AtStreet": "W 2 AVE",
      "Latitude": 49.270381,
      "Longitude": -123.168148,
      "WheelchairAccess": 0,
      "Distance": 1095,
      "Routes": "002, N22"
    },
    {
      "StopNo": 50065,
      "Name": "EB POINT GREY RD FS STEPHENS ST",
      "BayNo": "N",
      "City": "VANCOUVER",
      "OnStreet": "POINT GREY RD",
      "AtStreet": "STEPHENS ST",
      "Latitude": 49.27227,
      "Longitude": -123.16591,
      "WheelchairAccess": 0,
      "Distance": 1083,
      "Routes": ""
    },
    {
      "StopNo": 50066,
      "Name": "EB CORNWALL AVE FS LARCH ST",
      "BayNo": "N",
      "City": "VANCOUVER",
      "OnStreet": "CORNWALL AVE",
      "AtStreet": "LARCH ST",
      "Latitude": 49.272616,
      "Longitude": -123.161651,
      "WheelchairAccess": 0,
      "Distance": 911,
      "Routes": ""
    },
    {
      "StopNo": 50067,
      "Name": "EB CORNWALL AVE FS BALSAM ST",
      "BayNo": "N",
      "City": "VANCOUVER",
      "OnStreet": "CORNWALL AVE",
      "AtStreet": "BALSAM ST",
      "Latitude": 49.272582,
      "Longitude": -123.159332,
      "WheelchairAccess": 1,
      "Distance": 829,
      "Routes": "002, N22"
    },
    {
      "StopNo": 50068,
      "Name": "EB CORNWALL AVE FS VINE ST",
      "BayNo": "N",
      "City": "VANCOUVER",
      "OnStreet": "CORNWALL AVE",
      "AtStreet": "VINE ST",
      "Latitude": 49.272548,
      "Longitude": -123.156958,
      "WheelchairAccess": 1,
      "Distance": 774,
      "Routes": ""
    },
    {
      "StopNo": 50069,
      "Name": "EB CORNWALL AVE FS YEW ST",
      "BayNo": "N",
      "City": "VANCOUVER",
      "OnStreet": "CORNWALL AVE",
      "AtStreet": "YEW ST",
      "Latitude": 49.272507,
      "Longitude": -123.154568,
      "WheelchairAccess": 1,
      "Distance": 754,
      "Routes": "002, N22"
    },
    {
      "StopNo": 50070,
      "Name": "EB CORNWALL AVE FS ARBUTUS ST",
      "BayNo": "N",
      "City": "VANCOUVER",
      "OnStreet": "CORNWALL AVE",
      "AtStreet": "ARBUTUS ST",
      "Latitude": 49.272471,
      "Longitude": -123.152226,
      "WheelchairAccess": 1,
      "Distance": 1788,
      "Routes": "002, N22"
    },
    {
      "StopNo": 50071,
      "Name": "EB CORNWALL AVE FS MAPLE ST",
      "BayNo": "N",
      "City": "VANCOUVER",
      "OnStreet": "CORNWALL AVE",
      "AtStreet": "MAPLE ST",
      "Latitude": 49.272432,
      "Longitude": -123.149829,
      "WheelchairAccess": 1,
      "Distance": 1630,
      "Routes": ""
    },
    {
      "StopNo": 50072,
      "Name": "EB CORNWALL AVE FS CYPRESS ST",
      "BayNo": "N",
      "City": "VANCOUVER",
      "OnStreet": "CORNWALL AVE",
      "AtStreet": "CYPRESS ST",
      "Latitude": 49.272368,
      "Longitude": -123.14734,
      "WheelchairAccess": 1,
      "Distance": 1468,
      "Routes": "002, N22"
    },
    {
      "StopNo": 50073,
      "Name": "NB BURRARD ST FS PACIFIC ST",
      "BayNo": "N",
      "City": "VANCOUVER",
      "OnStreet": "BURRARD ST",
      "AtStreet": "PACIFIC ST",
      "Latitude": 49.277226,
      "Longitude": -123.131783,
      "WheelchairAccess": 1,
      "Distance": 1286,
      "Routes": "002, N22"
    },
    {
      "StopNo": 50074,
      "Name": "EB DAVIE ST FS BURRARD ST",
      "BayNo": "N",
      "City": "VANCOUVER",
      "OnStreet": "DAVIE ST",
      "AtStreet": "BURRARD ST",
      "Latitude": 49.278793,
      "Longitude": -123.128901,
      "WheelchairAccess": 1,
      "Distance": 1454,
      "Routes": "006"
    },
    {
      "StopNo": 50075,
      "Name": "NB BURRARD ST NS DAVIE ST",
      "BayNo": "N",
      "City": "VANCOUVER",
      "OnStreet": "BURRARD ST",
      "AtStreet": "DAVIE ST",
      "Latitude": 49.278885,
      "Longitude": -123.129252,
      "WheelchairAccess": 1,
      "Distance": 1464,
      "Routes": "002, 044, N22"
    },
    {
      "StopNo": 50079,
      "Name": "EB W PENDER ST FS RICHARDS ST",
      "BayNo": "N",
      "City": "VANCOUVER",
      "OnStreet": "W PENDER ST",
      "AtStreet": "RICHARDS ST",
      "Latitude": 49.282963,
      "Longitude": -123.112358,
      "WheelchairAccess": 1,
      "Distance": 1992,
      "Routes": ""
    },
    {
      "StopNo": 50080,
      "Name": "EB W PENDER ST FS HAMILTON ST",
      "BayNo": "N",
      "City": "VANCOUVER",
      "OnStreet": "W PENDER ST",
      "AtStreet": "HAMILTON ST",
      "Latitude": 49.281799,
      "Longitude": -123.110618,
      "WheelchairAccess": 1,
      "Distance": 1835,
      "Routes": "005, 017, 019, 022, N15, N19, N24"
    },
    {
      "StopNo": 50081,
      "Name": "SB CAMBIE ST NS DUNSMUIR ST",
      "BayNo": "N",
      "City": "VANCOUVER",
      "OnStreet": "CAMBIE ST",
      "AtStreet": "DUNSMUIR ST",
      "Latitude": 49.280808,
      "Longitude": -123.111146,
      "WheelchairAccess": 1,
      "Distance": 1738,
      "Routes": "006, N15, N24"
    },
    {
      "StopNo": 50082,
      "Name": "SB CAMBIE ST FS W GEORGIA ST",
      "BayNo": "N",
      "City": "VANCOUVER",
      "OnStreet": "CAMBIE ST",
      "AtStreet": "W GEORGIA ST",
      "Latitude": 49.279172,
      "Longitude": -123.113635,
      "WheelchairAccess": 1,
      "Distance": 1625,
      "Routes": ""
    },
    {
      "StopNo": 50085,
      "Name": "YALETOWN-ROUNDHOUSE STN BAY 3",
      "BayNo": "3",
      "City": "VANCOUVER",
      "OnStreet": "YALETOWN-ROUNDHOUSE STN",
      "AtStreet": "BAY 3",
      "Latitude": 49.27402,
      "Longitude": -123.121945,
      "WheelchairAccess": 1,
      "Distance": 1545,
      "Routes": "023"
    },
    {
      "StopNo": 50086,
      "Name": "WB PACIFIC BLVD FS DRAKE ST",
      "BayNo": "N",
      "City": "VANCOUVER",
      "OnStreet": "PACIFIC BLVD",
      "AtStreet": "DRAKE ST",
      "Latitude": 49.27342,
      "Longitude": -123.124214,
      "WheelchairAccess": 1,
      "Distance": 1645,
      "Routes": "023"
    },
    {
      "StopNo": 50087,
      "Name": "WB PACIFIC ST NS RICHARDS ST",
      "BayNo": "N",
      "City": "VANCOUVER",
      "OnStreet": "PACIFIC ST",
      "AtStreet": "RICHARDS ST",
      "Latitude": 49.273623,
      "Longitude": -123.127085,
      "WheelchairAccess": 1,
      "Distance": 1836,
      "Routes": "023"
    },
    {
      "StopNo": 50090,
      "Name": "WB W 41 AVE AT 900 BLOCK",
      "BayNo": "N",
      "City": "VANCOUVER",
      "OnStreet": "W 41 AVE",
      "AtStreet": "900 BLOCK",
      "Latitude": 49.233984,
      "Longitude": -123.126031,
      "WheelchairAccess": 1,
      "Distance": 1711,
      "Routes": ""
    },
    {
      "StopNo": 50091,
      "Name": "WB W PENDER ST FS CARRALL ST",
      "BayNo": "N",
      "City": "VANCOUVER",
      "OnStreet": "W PENDER ST",
      "AtStreet": "CARRALL ST",
      "Latitude": 49.280707,
      "Longitude": -123.104998,
      "WheelchairAccess": 1,
      "Distance": 1666,
      "Routes": "004, 007, 019, 022, 209, N19"
    },
    {
      "StopNo": 50093,
      "Name": "WB W PENDER ST FS ABBOTT ST",
      "BayNo": "N",
      "City": "VANCOUVER",
      "OnStreet": "W PENDER ST",
      "AtStreet": "ABBOTT ST",
      "Latitude": 49.28129,
      "Longitude": -123.108213,
      "WheelchairAccess": 1,
      "Distance": 1748,
      "Routes": "004, 007, 019, 022, 209, N19"
    },
    {
      "StopNo": 50094,
      "Name": "WB W PENDER ST FS HAMILTON ST",
      "BayNo": "N",
      "City": "VANCOUVER",
      "OnStreet": "W PENDER ST",
      "AtStreet": "HAMILTON ST",
      "Latitude": 49.282472,
      "Longitude": -123.11137,
      "WheelchairAccess": 1,
      "Distance": 1921,
      "Routes": "004, 005, 007, 019, 022, N19"
    },
    {
      "StopNo": 50098,
      "Name": "SB BURRARD ST FS DAVIE ST",
      "BayNo": "N",
      "City": "VANCOUVER",
      "OnStreet": "BURRARD ST",
      "AtStreet": "DAVIE ST",
      "Latitude": 49.278914,
      "Longitude": -123.12964,
      "WheelchairAccess": 1,
      "Distance": 1466,
      "Routes": "002, N22"
    },
    {
      "StopNo": 50101,
      "Name": "WB CORNWALL AVE FS CYPRESS ST",
      "BayNo": "N",
      "City": "VANCOUVER",
      "OnStreet": "CORNWALL AVE",
      "AtStreet": "CYPRESS ST",
      "Latitude": 49.272539,
      "Longitude": -123.148302,
      "WheelchairAccess": 1,
      "Distance": 1538,
      "Routes": "002, N22"
    },
    {
      "StopNo": 50102,
      "Name": "WB CORNWALL AVE FS MAPLE ST",
      "BayNo": "N",
      "City": "VANCOUVER",
      "OnStreet": "CORNWALL AVE",
      "AtStreet": "MAPLE ST",
      "Latitude": 49.272566,
      "Longitude": -123.150628,
      "WheelchairAccess": 0,
      "Distance": 1688,
      "Routes": ""
    },
    {
      "StopNo": 50103,
      "Name": "WB CORNWALL AVE FS ARBUTUS ST",
      "BayNo": "N",
      "City": "VANCOUVER",
      "OnStreet": "CORNWALL AVE",
      "AtStreet": "ARBUTUS ST",
      "Latitude": 49.272608,
      "Longitude": -123.152989,
      "WheelchairAccess": 1,
      "Distance": 777,
      "Routes": "002, N22"
    },
    {
      "StopNo": 50104,
      "Name": "WB CORNWALL AVE FS YEW ST",
      "BayNo": "N",
      "City": "VANCOUVER",
      "OnStreet": "CORNWALL AVE",
      "AtStreet": "YEW ST",
      "Latitude": 49.272645,
      "Longitude": -123.155439,
      "WheelchairAccess": 1,
      "Distance": 770,
      "Routes": "002, N22"
    },
    {
      "StopNo": 50105,
      "Name": "WB CORNWALL AVE FS POINT GREY RD",
      "BayNo": "N",
      "City": "VANCOUVER",
      "OnStreet": "CORNWALL AVE",
      "AtStreet": "POINT GREY RD",
      "Latitude": 49.272731,
      "Longitude": -123.160216,
      "WheelchairAccess": 1,
      "Distance": 871,
      "Routes": "002, N22"
    },
    {
      "StopNo": 50106,
      "Name": "WB CORNWALL AVE FS TRAFALGAR ST",
      "BayNo": "N",
      "City": "VANCOUVER",
      "OnStreet": "CORNWALL AVE",
      "AtStreet": "TRAFALGAR ST",
      "Latitude": 49.272799,
      "Longitude": -123.164636,
      "WheelchairAccess": 1,
      "Distance": 1059,
      "Routes": "002, N22"
    },
    {
      "StopNo": 50107,
      "Name": "SB MACDONALD ST FS W 1 AVE",
      "BayNo": "N",
      "City": "VANCOUVER",
      "OnStreet": "MACDONALD ST",
      "AtStreet": "W 1 AVE",
      "Latitude": 49.270753,
      "Longitude": -123.168323,
      "WheelchairAccess": 1,
      "Distance": 1126,
      "Routes": "002, N22"
    },
    {
      "StopNo": 50108,
      "Name": "SB MACDONALD ST FS W 3 AVE",
      "BayNo": "N",
      "City": "VANCOUVER",
      "OnStreet": "MACDONALD ST",
      "AtStreet": "W 3 AVE",
      "Latitude": 49.268877,
      "Longitude": -123.168389,
      "WheelchairAccess": 1,
      "Distance": 1043,
      "Routes": ""
    },
    {
      "StopNo": 50109,
      "Name": "SB MACDONALD ST FS W 6 AVE",
      "BayNo": "N",
      "City": "VANCOUVER",
      "OnStreet": "MACDONALD ST",
      "AtStreet": "W 6 AVE",
      "Latitude": 49.266274,
      "Longitude": -123.168483,
      "WheelchairAccess": 1,
      "Distance": 991,
      "Routes": "002, 014, N22"
    },
    {
      "StopNo": 50110,
      "Name": "SB MACDONALD ST NS W BROADWAY",
      "BayNo": "N",
      "City": "VANCOUVER",
      "OnStreet": "MACDONALD ST",
      "AtStreet": "W BROADWAY",
      "Latitude": 49.264268,
      "Longitude": -123.168373,
      "WheelchairAccess": 1,
      "Distance": 994,
      "Routes": "002, N22"
    },
    {
      "StopNo": 50111,
      "Name": "SB MACDONALD ST FS W 11 AVE",
      "BayNo": "N",
      "City": "VANCOUVER",
      "OnStreet": "MACDONALD ST",
      "AtStreet": "W 11 AVE",
      "Latitude": 49.261885,
      "Longitude": -123.16835,
      "WheelchairAccess": 0,
      "Distance": 1069,
      "Routes": "002, N22"
    },
    {
      "StopNo": 50112,
      "Name": "SB MACDONALD ST FS W 13 AVE",
      "BayNo": "N",
      "City": "VANCOUVER",
      "OnStreet": "MACDONALD ST",
      "AtStreet": "W 13 AVE",
      "Latitude": 49.260226,
      "Longitude": -123.168421,
      "WheelchairAccess": 0,
      "Distance": 1159,
      "Routes": "002, N22"
    },
    {
      "StopNo": 50113,
      "Name": "SB MACDONALD ST FS W 16 AVE",
      "BayNo": "N",
      "City": "VANCOUVER",
      "OnStreet": "MACDONALD ST",
      "AtStreet": "W 16 AVE",
      "Latitude": 49.257315,
      "Longitude": -123.168496,
      "WheelchairAccess": 1,
      "Distance": 1362,
      "Routes": "002, N22"
    },
    {
      "StopNo": 50114,
      "Name": "WB W 16 AVE FS MACDONALD ST",
      "BayNo": "N",
      "City": "VANCOUVER",
      "OnStreet": "W 16 AVE",
      "AtStreet": "MACDONALD ST",
      "Latitude": 49.257816,
      "Longitude": -123.168896,
      "WheelchairAccess": 1,
      "Distance": 1346,
      "Routes": "002, 033"
    },
    {
      "StopNo": 50115,
      "Name": "WB W 16 AVE FS MACKENZIE ST",
      "BayNo": "N",
      "City": "VANCOUVER",
      "OnStreet": "W 16 AVE",
      "AtStreet": "MACKENZIE ST",
      "Latitude": 49.257839,
      "Longitude": -123.170777,
      "WheelchairAccess": 0,
      "Distance": 1451,
      "Routes": "002, 033"
    },
    {
      "StopNo": 50116,
      "Name": "WB W 16 AVE FS BALACLAVA ST",
      "BayNo": "N",
      "City": "VANCOUVER",
      "OnStreet": "W 16 AVE",
      "AtStreet": "BALACLAVA ST",
      "Latitude": 49.257904,
      "Longitude": -123.17458,
      "WheelchairAccess": 1,
      "Distance": 1675,
      "Routes": "002, 033"
    },
    {
      "StopNo": 50118,
      "Name": "SB MACDONALD ST FS W 19 AVE",
      "BayNo": "N",
      "City": "VANCOUVER",
      "OnStreet": "MACDONALD ST",
      "AtStreet": "W 19 AVE",
      "Latitude": 49.255207,
      "Longitude": -123.167862,
      "WheelchairAccess": 1,
      "Distance": 1866,
      "Routes": ""
    },
    {
      "StopNo": 50119,
      "Name": "SB MACDONALD ST FS W 21 AVE",
      "BayNo": "N",
      "City": "VANCOUVER",
      "OnStreet": "MACDONALD ST",
      "AtStreet": "W 21 AVE",
      "Latitude": 49.253375,
      "Longitude": -123.16787,
      "WheelchairAccess": 1,
      "Distance": 1694,
      "Routes": "002, N22"
    },
    {
      "StopNo": 50120,
      "Name": "SB MACDONALD ST FS W 23 AVE",
      "BayNo": "N",
      "City": "VANCOUVER",
      "OnStreet": "MACDONALD ST",
      "AtStreet": "W 23 AVE",
      "Latitude": 49.251598,
      "Longitude": -123.167891,
      "WheelchairAccess": 1,
      "Distance": 1535,
      "Routes": ""
    },
    {
      "StopNo": 50121,
      "Name": "SB MACDONALD ST FS ALAMEIN AVE",
      "BayNo": "N",
      "City": "VANCOUVER",
      "OnStreet": "MACDONALD ST",
      "AtStreet": "ALAMEIN AVE",
      "Latitude": 49.249858,
      "Longitude": -123.167913,
      "WheelchairAccess": 1,
      "Distance": 1389,
      "Routes": "002, N22"
    },
    {
      "StopNo": 50122,
      "Name": "WB W KING EDWARD AVE FS MACDONALD ST",
      "BayNo": "N",
      "City": "VANCOUVER",
      "OnStreet": "W KING EDWARD AVE",
      "AtStreet": "MACDONALD ST",
      "Latitude": 49.248641,
      "Longitude": -123.168633,
      "WheelchairAccess": 1,
      "Distance": 1332,
      "Routes": "002, 025, N22"
    },
    {
      "StopNo": 50123,
      "Name": "WB W KING EDWARD AVE FS PUGET DR",
      "BayNo": "N",
      "City": "VANCOUVER",
      "OnStreet": "W KING EDWARD AVE",
      "AtStreet": "PUGET DR",
      "Latitude": 49.249627,
      "Longitude": -123.170432,
      "WheelchairAccess": 0,
      "Distance": 1503,
      "Routes": "002, 025, N22"
    },
    {
      "StopNo": 50124,
      "Name": "SB QUESNEL DR FS W KING EDWARD AVE",
      "BayNo": "N",
      "City": "VANCOUVER",
      "OnStreet": "QUESNEL DR",
      "AtStreet": "W KING EDWARD AVE",
      "Latitude": 49.249603,
      "Longitude": -123.171914,
      "WheelchairAccess": 0,
      "Distance": 1584,
      "Routes": "002, N22"
    },
    {
      "StopNo": 50125,
      "Name": "SB QUESNEL DR NS W 27 AVE",
      "BayNo": "N",
      "City": "VANCOUVER",
      "OnStreet": "QUESNEL DR",
      "AtStreet": "W 27 AVE",
      "Latitude": 49.248207,
      "Longitude": -123.17076,
      "WheelchairAccess": 0,
      "Distance": 1423,
      "Routes": ""
    },
    {
      "StopNo": 50126,
      "Name": "SB MACKENZIE ST FS W 29 AVE",
      "BayNo": "N",
      "City": "VANCOUVER",
      "OnStreet": "MACKENZIE ST",
      "AtStreet": "W 29 AVE",
      "Latitude": 49.245848,
      "Longitude": -123.170308,
      "WheelchairAccess": 0,
      "Distance": 1258,
      "Routes": "002, N22"
    },
    {
      "StopNo": 50127,
      "Name": "SB MACKENZIE ST FS W 31 AVE",
      "BayNo": "N",
      "City": "VANCOUVER",
      "OnStreet": "MACKENZIE ST",
      "AtStreet": "W 31 AVE",
      "Latitude": 49.243935,
      "Longitude": -123.170323,
      "WheelchairAccess": 0,
      "Distance": 1178,
      "Routes": ""
    },
    {
      "StopNo": 50128,
      "Name": "SB MACKENZIE ST FS W 33 AVE",
      "BayNo": "N",
      "City": "VANCOUVER",
      "OnStreet": "MACKENZIE ST",
      "AtStreet": "W 33 AVE",
      "Latitude": 49.241997,
      "Longitude": -123.170345,
      "WheelchairAccess": 1,
      "Distance": 1133,
      "Routes": "002, N22"
    },
    {
      "StopNo": 50129,
      "Name": "SB MACKENZIE ST FS W 35 AVE",
      "BayNo": "N",
      "City": "VANCOUVER",
      "OnStreet": "MACKENZIE ST",
      "AtStreet": "W 35 AVE",
      "Latitude": 49.240126,
      "Longitude": -123.170352,
      "WheelchairAccess": 0,
      "Distance": 1127,
      "Routes": ""
    },
    {
      "StopNo": 50130,
      "Name": "SB MACKENZIE ST FS W 37 AVE",
      "BayNo": "N",
      "City": "VANCOUVER",
      "OnStreet": "MACKENZIE ST",
      "AtStreet": "W 37 AVE",
      "Latitude": 49.238254,
      "Longitude": -123.170377,
      "WheelchairAccess": 1,
      "Distance": 1160,
      "Routes": "002, N22"
    },
    {
      "StopNo": 50131,
      "Name": "SB MACKENZIE ST FS W 39 AVE",
      "BayNo": "N",
      "City": "VANCOUVER",
      "OnStreet": "MACKENZIE ST",
      "AtStreet": "W 39 AVE",
      "Latitude": 49.236401,
      "Longitude": -123.170382,
      "WheelchairAccess": 1,
      "Distance": 1226,
      "Routes": ""
    },
    {
      "StopNo": 50132,
      "Name": "EB W 41 AVE FS MACKENZIE ST",
      "BayNo": "N",
      "City": "VANCOUVER",
      "OnStreet": "W 41 AVE",
      "AtStreet": "MACKENZIE ST",
      "Latitude": 49.234673,
      "Longitude": -123.169829,
      "WheelchairAccess": 1,
      "Distance": 1279,
      "Routes": "041"
    },
    {
      "StopNo": 50133,
      "Name": "WB W 41 AVE FS WILLOW ST",
      "BayNo": "N",
      "City": "VANCOUVER",
      "OnStreet": "W 41ST AVE",
      "AtStreet": "WILLOW ST",
      "Latitude": 49.233946,
      "Longitude": -123.124174,
      "WheelchairAccess": 1,
      "Distance": 1593,
      "Routes": "041"
    },
    {
      "StopNo": 50134,
      "Name": "EB W 41 AVE FS WILLOW ST",
      "BayNo": "N",
      "City": "VANCOUVER",
      "OnStreet": "W 41 AVE",
      "AtStreet": "WILLOW ST",
      "Latitude": 49.233687,
      "Longitude": -123.123477,
      "WheelchairAccess": 1,
      "Distance": 1562,
      "Routes": "041"
    },
    {
      "StopNo": 50135,
      "Name": "EB W 41 AVE FS HEATHER ST",
      "BayNo": "N",
      "City": "VANCOUVER",
      "OnStreet": "W 41 AVE",
      "AtStreet": "HEATHER ST",
      "Latitude": 49.233534,
      "Longitude": -123.120243,
      "WheelchairAccess": 1,
      "Distance": 1374,
      "Routes": ""
    },
    {
      "StopNo": 50136,
      "Name": "OAKRIDGE-41ST AVE STN BAY 2",
      "BayNo": "2",
      "City": "VANCOUVER",
      "OnStreet": "OAKRIDGE-41ST AVE STN",
      "AtStreet": "BAY 2",
      "Latitude": 49.23344,
      "Longitude": -123.116867,
      "WheelchairAccess": 1,
      "Distance": 1191,
      "Routes": ""
    },
    {
      "StopNo": 50137,
      "Name": "EB W 41 AVE FS CAMBIE ST-",
      "BayNo": "N",
      "City": "VANCOUVER",
      "OnStreet": "W 41 AVE",
      "AtStreet": "CAMBIE ST",
      "Latitude": 49.233415,
      "Longitude": -123.115623,
      "WheelchairAccess": 1,
      "Distance": 1128,
      "Routes": "041"
    },
    {
      "StopNo": 50138,
      "Name": "EB  W 41 AVE NS COLUMBIA ST",
      "BayNo": "N",
      "City": "VANCOUVER",
      "OnStreet": "W 41 AVE",
      "AtStreet": "COLUMBIA ST",
      "Latitude": 49.23327,
      "Longitude": -123.111462,
      "WheelchairAccess": 1,
      "Distance": 958,
      "Routes": "041"
    },
    {
      "StopNo": 50139,
      "Name": "EB W 41 AVE FS MANITOBA ST",
      "BayNo": "N",
      "City": "VANCOUVER",
      "OnStreet": "W 41 AVE",
      "AtStreet": "MANITOBA ST",
      "Latitude": 49.233142,
      "Longitude": -123.107725,
      "WheelchairAccess": 1,
      "Distance": 1948,
      "Routes": "041"
    },
    {
      "StopNo": 50140,
      "Name": "EB E 41 AVE FS ONTARIO ST",
      "BayNo": "N",
      "City": "VANCOUVER",
      "OnStreet": "E 41 AVE",
      "AtStreet": "ONTARIO ST",
      "Latitude": 49.233063,
      "Longitude": -123.105218,
      "WheelchairAccess": 1,
      "Distance": 1928,
      "Routes": "041"
    },
    {
      "StopNo": 50141,
      "Name": "WB SE MARINE DR NS MAIN ST",
      "BayNo": "N",
      "City": "VANCOUVER",
      "OnStreet": "SE MARINE DR",
      "AtStreet": "MAIN ST",
      "Latitude": 49.211021,
      "Longitude": -123.101393,
      "WheelchairAccess": 0,
      "Distance": 1650,
      "Routes": ""
    },
    {
      "StopNo": 50142,
      "Name": "NB MAIN ST FS SE MARINE DR",
      "BayNo": "N",
      "City": "VANCOUVER",
      "OnStreet": "MAIN ST",
      "AtStreet": "SE MARINE DR",
      "Latitude": 49.211565,
      "Longitude": -123.102035,
      "WheelchairAccess": 1,
      "Distance": 1676,
      "Routes": "003"
    },
    {
      "StopNo": 50146,
      "Name": "NB MAIN ST FS E 59 AVE",
      "BayNo": "N",
      "City": "VANCOUVER",
      "OnStreet": "MAIN ST",
      "AtStreet": "E 59 AVE",
      "Latitude": 49.217015,
      "Longitude": -123.101819,
      "WheelchairAccess": 1,
      "Distance": 1602,
      "Routes": "003"
    },
    {
      "StopNo": 50147,
      "Name": "NB MAIN ST FS E 57 AVE",
      "BayNo": "N",
      "City": "VANCOUVER",
      "OnStreet": "MAIN ST",
      "AtStreet": "E 57 AVE",
      "Latitude": 49.218788,
      "Longitude": -123.10174,
      "WheelchairAccess": 1,
      "Distance": 1626,
      "Routes": "003"
    },
    {
      "StopNo": 50150,
      "Name": "NB MAIN ST NS E 51 AVE",
      "BayNo": "N",
      "City": "VANCOUVER",
      "OnStreet": "MAIN ST",
      "AtStreet": "E 51 AVE",
      "Latitude": 49.223638,
      "Longitude": -123.101593,
      "WheelchairAccess": 1,
      "Distance": 1807,
      "Routes": "003"
    },
    {
      "StopNo": 50151,
      "Name": "NB MAIN ST FS E 49 AVE",
      "BayNo": "N",
      "City": "VANCOUVER",
      "OnStreet": "MAIN ST",
      "AtStreet": "E 49 AVE",
      "Latitude": 49.225975,
      "Longitude": -123.10147,
      "WheelchairAccess": 1,
      "Distance": 1940,
      "Routes": "003"
    },
    {
      "StopNo": 50154,
      "Name": "NB MAIN ST FS E 43 AVE",
      "BayNo": "N",
      "City": "VANCOUVER",
      "OnStreet": "MAIN ST",
      "AtStreet": "E 43 AVE",
      "Latitude": 49.231454,
      "Longitude": -123.101306,
      "WheelchairAccess": 1,
      "Distance": 1868,
      "Routes": "003"
    },
    {
      "StopNo": 50155,
      "Name": "NB MAIN ST FS E 41 AVE",
      "BayNo": "N",
      "City": "VANCOUVER",
      "OnStreet": "MAIN ST",
      "AtStreet": "E 41 AVE",
      "Latitude": 49.233445,
      "Longitude": -123.101394,
      "WheelchairAccess": 1,
      "Distance": 1761,
      "Routes": "003"
    },
    {
      "StopNo": 50156,
      "Name": "WB E 41 AVE FS MAIN ST",
      "BayNo": "N",
      "City": "VANCOUVER",
      "OnStreet": "E 41 AVE",
      "AtStreet": "MAIN ST",
      "Latitude": 49.233207,
      "Longitude": -123.102082,
      "WheelchairAccess": 1,
      "Distance": 1818,
      "Routes": ""
    },
    {
      "StopNo": 50157,
      "Name": "WB W 41 AVE FS ONTARIO ST",
      "BayNo": "N",
      "City": "VANCOUVER",
      "OnStreet": "W 41 AVE",
      "AtStreet": "ONTARIO ST",
      "Latitude": 49.233269,
      "Longitude": -123.106197,
      "WheelchairAccess": 1,
      "Distance": 1953,
      "Routes": "041"
    },
    {
      "StopNo": 50158,
      "Name": "WB W 41 AVE FS COLUMBIA ST",
      "BayNo": "N",
      "City": "VANCOUVER",
      "OnStreet": "W 41 AVE",
      "AtStreet": "COLUMBIA ST",
      "Latitude": 49.233442,
      "Longitude": -123.11122,
      "WheelchairAccess": 1,
      "Distance": 933,
      "Routes": "041"
    },
    {
      "StopNo": 50159,
      "Name": "WB W 41 AVE NS CAMBIE ST-",
      "BayNo": "N",
      "City": "VANCOUVER",
      "OnStreet": "W 41 AVE",
      "AtStreet": "CAMBIE ST",
      "Latitude": 49.233634,
      "Longitude": -123.115566,
      "WheelchairAccess": 1,
      "Distance": 1108,
      "Routes": ""
    },
    {
      "StopNo": 50160,
      "Name": "OAKRIDGE-41ST AVE STN BAY 5",
      "BayNo": "5",
      "City": "VANCOUVER",
      "OnStreet": "OAKRIDGE-41ST AVE STN",
      "AtStreet": "BAY 5",
      "Latitude": 49.233681,
      "Longitude": -123.116855,
      "WheelchairAccess": 1,
      "Distance": 1172,
      "Routes": "041"
    },
    {
      "StopNo": 50161,
      "Name": "WB W 41 AVE FS HEATHER ST",
      "BayNo": "N",
      "City": "VANCOUVER",
      "OnStreet": "W 41 AVE",
      "AtStreet": "HEATHER ST",
      "Latitude": 49.233831,
      "Longitude": -123.121289,
      "WheelchairAccess": 1,
      "Distance": 1418,
      "Routes": ""
    },
    {
      "StopNo": 50162,
      "Name": "NB MAIN ST FS E 39 AVE",
      "BayNo": "N",
      "City": "VANCOUVER",
      "OnStreet": "MAIN ST",
      "AtStreet": "E 39 AVE",
      "Latitude": 49.235734,
      "Longitude": -123.101505,
      "WheelchairAccess": 1,
      "Distance": 1667,
      "Routes": "003"
    },
    {
      "StopNo": 50163,
      "Name": "NB MAIN ST NS E 36 AVE",
      "BayNo": "N",
      "City": "VANCOUVER",
      "OnStreet": "MAIN ST",
      "AtStreet": "E 36 AVE",
      "Latitude": 49.23802,
      "Longitude": -123.101502,
      "WheelchairAccess": 1,
      "Distance": 1600,
      "Routes": "003"
    },
    {
      "StopNo": 50165,
      "Name": "NB MAIN ST FS E 33 AVE",
      "BayNo": "N",
      "City": "VANCOUVER",
      "OnStreet": "MAIN ST",
      "AtStreet": "E 33 AVE",
      "Latitude": 49.241308,
      "Longitude": -123.101314,
      "WheelchairAccess": 1,
      "Distance": 1559,
      "Routes": "003"
    },
    {
      "StopNo": 50166,
      "Name": "NB MAIN ST FS E 30 AVE",
      "BayNo": "N",
      "City": "VANCOUVER",
      "OnStreet": "MAIN ST",
      "AtStreet": "E 30 AVE",
      "Latitude": 49.243554,
      "Longitude": -123.101232,
      "WheelchairAccess": 1,
      "Distance": 1584,
      "Routes": "003"
    },
    {
      "StopNo": 50167,
      "Name": "NB MAIN ST FS E 28 AVE",
      "BayNo": "N",
      "City": "VANCOUVER",
      "OnStreet": "MAIN ST",
      "AtStreet": "E 28 AVE",
      "Latitude": 49.245968,
      "Longitude": -123.101101,
      "WheelchairAccess": 1,
      "Distance": 1649,
      "Routes": "003"
    },
    {
      "StopNo": 50169,
      "Name": "NB MAIN ST FS E KING EDWARD AVE",
      "BayNo": "N",
      "City": "VANCOUVER",
      "OnStreet": "MAIN ST",
      "AtStreet": "E KING EDWARD AVE",
      "Latitude": 49.249121,
      "Longitude": -123.100891,
      "WheelchairAccess": 1,
      "Distance": 1790,
      "Routes": "003"
    },
    {
      "StopNo": 50174,
      "Name": "NB MAIN ST FS E 12 AVE",
      "BayNo": "N",
      "City": "VANCOUVER",
      "OnStreet": "MAIN ST",
      "AtStreet": "E 12 AVE",
      "Latitude": 49.260528,
      "Longitude": -123.100888,
      "WheelchairAccess": 1,
      "Distance": 1632,
      "Routes": "003"
    },
    {
      "StopNo": 50176,
      "Name": "NB MAIN ST FS E BROADWAY",
      "BayNo": "N",
      "City": "VANCOUVER",
      "OnStreet": "MAIN ST",
      "AtStreet": "E BROADWAY",
      "Latitude": 49.263233,
      "Longitude": -123.100792,
      "WheelchairAccess": 1,
      "Distance": 1545,
      "Routes": "003"
    },
    {
      "StopNo": 50177,
      "Name": "NB MAIN ST NS E 6 AVE",
      "BayNo": "N",
      "City": "VANCOUVER",
      "OnStreet": "MAIN ST",
      "AtStreet": "E 6 AVE",
      "Latitude": 49.265339,
      "Longitude": -123.100685,
      "WheelchairAccess": 1,
      "Distance": 1512,
      "Routes": "003, 008, 019, N19, N8"
    },
    {
      "StopNo": 50178,
      "Name": "NB MAIN ST FS E 5 AVE",
      "BayNo": "N",
      "City": "VANCOUVER",
      "OnStreet": "MAIN ST",
      "AtStreet": "E 5 AVE",
      "Latitude": 49.266719,
      "Longitude": -123.100662,
      "WheelchairAccess": 1,
      "Distance": 1514,
      "Routes": "003, 008, 019, N19, N8"
    },
    {
      "StopNo": 50179,
      "Name": "NB MAIN ST FS E 2 AVE",
      "BayNo": "N",
      "City": "VANCOUVER",
      "OnStreet": "MAIN ST",
      "AtStreet": "E 2 AVE",
      "Latitude": 49.269455,
      "Longitude": -123.100505,
      "WheelchairAccess": 1,
      "Distance": 1555,
      "Routes": "003, 008, 019, N19, N8"
    },
    {
      "StopNo": 50180,
      "Name": "NB MAIN ST FS INDUSTRIAL AVE",
      "BayNo": "N",
      "City": "VANCOUVER",
      "OnStreet": "MAIN ST",
      "AtStreet": "INDUSTRIAL AVE",
      "Latitude": 49.270803,
      "Longitude": -123.100432,
      "WheelchairAccess": 1,
      "Distance": 1596,
      "Routes": "003, 008, 019, N19, N8"
    },
    {
      "StopNo": 50181,
      "Name": "MAIN STREET-SCIENCE WORLD STN BAY 2",
      "BayNo": "2",
      "City": "VANCOUVER",
      "OnStreet": "MAIN STREET-SCIENCE WORLD STN",
      "AtStreet": "BAY 2",
      "Latitude": 49.273395,
      "Longitude": -123.099831,
      "WheelchairAccess": 1,
      "Distance": 1682,
      "Routes": "003, 008, 019, 022, N19, N8"
    },
    {
      "StopNo": 50182,
      "Name": "NB MAIN ST FS NATIONAL AVE",
      "BayNo": "N",
      "City": "VANCOUVER",
      "OnStreet": "MAIN ST",
      "AtStreet": "NATIONAL AVE",
      "Latitude": 49.275321,
      "Longitude": -123.099748,
      "WheelchairAccess": 1,
      "Distance": 1795,
      "Routes": "003, 008, 019, 022, N19, N8"
    },
    {
      "StopNo": 50184,
      "Name": "NB MAIN ST FS E GEORGIA ST",
      "BayNo": "N",
      "City": "VANCOUVER",
      "OnStreet": "MAIN ST",
      "AtStreet": "E GEORGIA ST",
      "Latitude": 49.278968,
      "Longitude": -123.099607,
      "WheelchairAccess": 1,
      "Distance": 1521,
      "Routes": "003, 008, 019, 022, N19, N8"
    },
    {
      "StopNo": 50185,
      "Name": "WB E HASTINGS ST FS MAIN ST",
      "BayNo": "N",
      "City": "VANCOUVER",
      "OnStreet": "E HASTINGS ST",
      "AtStreet": "MAIN ST",
      "Latitude": 49.28144,
      "Longitude": -123.1003,
      "WheelchairAccess": 1,
      "Distance": 1778,
      "Routes": "003, 008, N20, N35, N8"
    },
    {
      "StopNo": 50186,
      "Name": "WB W HASTINGS ST FS CARRALL ST",
      "BayNo": "N",
      "City": "VANCOUVER",
      "OnStreet": "W HASTINGS ST",
      "AtStreet": "CARRALL ST",
      "Latitude": 49.281733,
      "Longitude": -123.105366,
      "WheelchairAccess": 1,
      "Distance": 1780,
      "Routes": "003, 008, 014, 016, 020, N20, N35, N8"
    },
    {
      "StopNo": 50187,
      "Name": "WB W HASTINGS ST FS ABBOTT ST",
      "BayNo": "N",
      "City": "VANCOUVER",
      "OnStreet": "W HASTINGS ST",
      "AtStreet": "ABBOTT ST",
      "Latitude": 49.282221,
      "Longitude": -123.108043,
      "WheelchairAccess": 1,
      "Distance": 1848,
      "Routes": "003, 008, 014, 016, 020, N20, N35, N8"
    },
    {
      "StopNo": 50188,
      "Name": "WB W HASTINGS ST FS HAMILTON ST",
      "BayNo": "N",
      "City": "VANCOUVER",
      "OnStreet": "W HASTINGS ST",
      "AtStreet": "HAMILTON ST",
      "Latitude": 49.283085,
      "Longitude": -123.110279,
      "WheelchairAccess": 1,
      "Distance": 1970,
      "Routes": "003, 008, 014, 016, 020, N20, N35, N8"
    },
    {
      "StopNo": 50190,
      "Name": "SB RICHARDS ST FS DUNSMUIR ST",
      "BayNo": "N",
      "City": "VANCOUVER",
      "OnStreet": "RICHARDS ST",
      "AtStreet": "DUNSMUIR ST",
      "Latitude": 49.281944,
      "Longitude": -123.115253,
      "WheelchairAccess": 1,
      "Distance": 1955,
      "Routes": "020"
    },
    {
      "StopNo": 50191,
      "Name": "SB RICHARDS ST NS W GEORGIA ST",
      "BayNo": "N",
      "City": "VANCOUVER",
      "OnStreet": "RICHARDS ST",
      "AtStreet": "W GEORGIA ST",
      "Latitude": 49.2814,
      "Longitude": -123.11603,
      "WheelchairAccess": 1,
      "Distance": 1922,
      "Routes": ""
    },
    {
      "StopNo": 50192,
      "Name": "WB ROBSON ST FS RICHARDS ST",
      "BayNo": "N",
      "City": "VANCOUVER",
      "OnStreet": "ROBSON ST",
      "AtStreet": "RICHARDS ST",
      "Latitude": 49.28041,
      "Longitude": -123.11823,
      "WheelchairAccess": 1,
      "Distance": 1899,
      "Routes": ""
    },
    {
      "StopNo": 50195,
      "Name": "WB W 41 AVE FS OAK ST",
      "BayNo": "N",
      "City": "VANCOUVER",
      "OnStreet": "W 41 AVE",
      "AtStreet": "OAK ST",
      "Latitude": 49.234081,
      "Longitude": -123.128633,
      "WheelchairAccess": 1,
      "Distance": 744,
      "Routes": "R4"
    },
    {
      "StopNo": 50196,
      "Name": "WB W 41 AVE FS SELKIRK ST",
      "BayNo": "N",
      "City": "VANCOUVER",
      "OnStreet": "W 41 AVE",
      "AtStreet": "SELKIRK ST",
      "Latitude": 49.234201,
      "Longitude": -123.132951,
      "WheelchairAccess": 1,
      "Distance": 760,
      "Routes": "041"
    },
    {
      "StopNo": 50197,
      "Name": "WB W 41 AVE NS CARTIER ST",
      "BayNo": "N",
      "City": "VANCOUVER",
      "OnStreet": "W 41 AVE",
      "AtStreet": "CARTIER ST",
      "Latitude": 49.234332,
      "Longitude": -123.137,
      "WheelchairAccess": 1,
      "Distance": 880,
      "Routes": "041"
    },
    {
      "StopNo": 50198,
      "Name": "WB W 41 AVE NS GRANVILLE ST",
      "BayNo": "N",
      "City": "VANCOUVER",
      "OnStreet": "W 41 AVE",
      "AtStreet": "GRANVILLE ST",
      "Latitude": 49.234391,
      "Longitude": -123.139167,
      "WheelchairAccess": 1,
      "Distance": 977,
      "Routes": "041"
    },
    {
      "StopNo": 50199,
      "Name": "EB W 41 AVE FS GRANVILLE ST",
      "BayNo": "N",
      "City": "VANCOUVER",
      "OnStreet": "W 41 AVE",
      "AtStreet": "GRANVILLE ST",
      "Latitude": 49.23422,
      "Longitude": -123.138484,
      "WheelchairAccess": 1,
      "Distance": 957,
      "Routes": "R4"
    },
    {
      "StopNo": 50200,
      "Name": "EB W 41 AVE FS SELKIRK ST",
      "BayNo": "N",
      "City": "VANCOUVER",
      "OnStreet": "W 41 AVE",
      "AtStreet": "SELKIRK ST",
      "Latitude": 49.23404,
      "Longitude": -123.132898,
      "WheelchairAccess": 1,
      "Distance": 776,
      "Routes": "041"
    },
    {
      "StopNo": 50201,
      "Name": "EB W 41 AVE FS OSLER ST",
      "BayNo": "N",
      "City": "VANCOUVER",
      "OnStreet": "W 41 AVE",
      "AtStreet": "OSLER ST",
      "Latitude": 49.233911,
      "Longitude": -123.129836,
      "WheelchairAccess": 1,
      "Distance": 758,
      "Routes": "041"
    },
    {
      "StopNo": 50202,
      "Name": "NB GRANVILLE ST FS W 40 AV",
      "BayNo": "N",
      "City": "VANCOUVER",
      "OnStreet": "GRANVILLE ST",
      "AtStreet": "W 40 AVE",
      "Latitude": 49.23564,
      "Longitude": -123.13941,
      "WheelchairAccess": 0,
      "Distance": 895,
      "Routes": ""
    },
    {
      "StopNo": 50203,
      "Name": "NB GRANVILLE ST FS W 38 AVE",
      "BayNo": "N",
      "City": "VANCOUVER",
      "OnStreet": "GRANVILLE ST",
      "AtStreet": "W 38 AVE",
      "Latitude": 49.237418,
      "Longitude": -123.139374,
      "WheelchairAccess": 1,
      "Distance": 783,
      "Routes": "010, N10"
    },
    {
      "StopNo": 50204,
      "Name": "NB GRANVILLE ST FS W 36 AVE",
      "BayNo": "N",
      "City": "VANCOUVER",
      "OnStreet": "GRANVILLE ST",
      "AtStreet": "W 36 AVE",
      "Latitude": 49.239279,
      "Longitude": -123.13931,
      "WheelchairAccess": 0,
      "Distance": 705,
      "Routes": "010, N10"
    },
    {
      "StopNo": 50205,
      "Name": "NB GRANVILLE ST FS W 34 AVE",
      "BayNo": "N",
      "City": "VANCOUVER",
      "OnStreet": "GRANVILLE ST",
      "AtStreet": "W 34 AVE",
      "Latitude": 49.241186,
      "Longitude": -123.13924,
      "WheelchairAccess": 1,
      "Distance": 683,
      "Routes": "010, N10"
    },
    {
      "StopNo": 50206,
      "Name": "NB GRANVILLE ST FS MINTO CRES",
      "BayNo": "N",
      "City": "VANCOUVER",
      "OnStreet": "GRANVILLE ST",
      "AtStreet": "MINTO CRES",
      "Latitude": 49.243144,
      "Longitude": -123.139178,
      "WheelchairAccess": 1,
      "Distance": 728,
      "Routes": "010, N10"
    },
    {
      "StopNo": 50207,
      "Name": "NB GRANVILLE ST FS N CONNAUGHT DR",
      "BayNo": "N",
      "City": "VANCOUVER",
      "OnStreet": "GRANVILLE ST",
      "AtStreet": "N CONNAUGHT DR",
      "Latitude": 49.245722,
      "Longitude": -123.139081,
      "WheelchairAccess": 0,
      "Distance": 870,
      "Routes": "010, N10"
    },
    {
      "StopNo": 50208,
      "Name": "NB GRANVILLE ST FS NANTON AVE",
      "BayNo": "N",
      "City": "VANCOUVER",
      "OnStreet": "GRANVILLE ST",
      "AtStreet": "NANTON AVE",
      "Latitude": 49.24769,
      "Longitude": -123.139023,
      "WheelchairAccess": 1,
      "Distance": 1021,
      "Routes": "010, N10"
    },
    {
      "StopNo": 50209,
      "Name": "NB GRANVILLE ST FS W KING EDWARD AVE",
      "BayNo": "N",
      "City": "VANCOUVER",
      "OnStreet": "GRANVILLE ST",
      "AtStreet": "W KING EDWARD AVE",
      "Latitude": 49.250127,
      "Longitude": -123.138924,
      "WheelchairAccess": 1,
      "Distance": 1235,
      "Routes": "010, N10"
    },
    {
      "StopNo": 50210,
      "Name": "NB GRANVILLE ST FS BALFOUR AVE",
      "BayNo": "N",
      "City": "VANCOUVER",
      "OnStreet": "GRANVILLE ST",
      "AtStreet": "BALFOUR AVE",
      "Latitude": 49.252263,
      "Longitude": -123.138834,
      "WheelchairAccess": 1,
      "Distance": 1439,
      "Routes": "010, N10"
    },
    {
      "StopNo": 50211,
      "Name": "NB GRANVILLE ST FS MATTHEWS AVE",
      "BayNo": "N",
      "City": "VANCOUVER",
      "OnStreet": "GRANVILLE ST",
      "AtStreet": "MATTHEWS AVE",
      "Latitude": 49.253467,
      "Longitude": -123.138804,
      "WheelchairAccess": 0,
      "Distance": 1558,
      "Routes": "010, N10"
    },
    {
      "StopNo": 50212,
      "Name": "NB GRANVILLE ST FS W 16 AVE",
      "BayNo": "N",
      "City": "VANCOUVER",
      "OnStreet": "GRANVILLE ST",
      "AtStreet": "W 16 AVE",
      "Latitude": 49.257367,
      "Longitude": -123.138663,
      "WheelchairAccess": 1,
      "Distance": 1958,
      "Routes": "010, N10"
    },
    {
      "StopNo": 50213,
      "Name": "NB GRANVILLE ST FS W 14 AVE",
      "BayNo": "N",
      "City": "VANCOUVER",
      "OnStreet": "GRANVILLE ST",
      "AtStreet": "W 14 AVE",
      "Latitude": 49.25921,
      "Longitude": -123.138595,
      "WheelchairAccess": 1,
      "Distance": 963,
      "Routes": "010, N10"
    },
    {
      "StopNo": 50214,
      "Name": "NB GRANVILLE ST FS W 12 AVE",
      "BayNo": "N",
      "City": "VANCOUVER",
      "OnStreet": "GRANVILLE ST",
      "AtStreet": "W 12 AVE",
      "Latitude": 49.261157,
      "Longitude": -123.13852,
      "WheelchairAccess": 1,
      "Distance": 809,
      "Routes": "010, 016, N10"
    },
    {
      "StopNo": 50216,
      "Name": "NB GRANVILLE ST FS W BROADWAY",
      "BayNo": "N",
      "City": "VANCOUVER",
      "OnStreet": "GRANVILLE ST",
      "AtStreet": "W BROADWAY",
      "Latitude": 49.264166,
      "Longitude": -123.138406,
      "WheelchairAccess": 1,
      "Distance": 644,
      "Routes": ""
    },
    {
      "StopNo": 50217,
      "Name": "NB GRANVILLE ST FS W 7 AVE",
      "BayNo": "N",
      "City": "VANCOUVER",
      "OnStreet": "GRANVILLE ST",
      "AtStreet": "W 7 AVE",
      "Latitude": 49.265651,
      "Longitude": -123.138349,
      "WheelchairAccess": 1,
      "Distance": 617,
      "Routes": "010, 014, 016, N10, N17, N9"
    },
    {
      "StopNo": 50218,
      "Name": "NB GRANVILLE ST FS W 5 AVE",
      "BayNo": "N",
      "City": "VANCOUVER",
      "OnStreet": "GRANVILLE ST",
      "AtStreet": "W 5 AVE",
      "Latitude": 49.267404,
      "Longitude": -123.138259,
      "WheelchairAccess": 1,
      "Distance": 638,
      "Routes": "010, 016, N10, N17, N9"
    },
    {
      "StopNo": 50220,
      "Name": "NB GRANVILLE ST FS DAVIE ST",
      "BayNo": "N",
      "City": "VANCOUVER",
      "OnStreet": "GRANVILLE ST",
      "AtStreet": "DAVIE ST",
      "Latitude": 49.277584,
      "Longitude": -123.125372,
      "WheelchairAccess": 1,
      "Distance": 1989,
      "Routes": "004, 007, 010, 014, 016, 050"
    },
    {
      "StopNo": 50222,
      "Name": "NB GRANVILLE ST FS NELSON ST",
      "BayNo": "N",
      "City": "VANCOUVER",
      "OnStreet": "GRANVILLE ST",
      "AtStreet": "NELSON ST",
      "Latitude": 49.279628,
      "Longitude": -123.122294,
      "WheelchairAccess": 1,
      "Distance": 1998,
      "Routes": ""
    },
    {
      "StopNo": 50227,
      "Name": "EB E CORDOVA ST FS CARRALL ST",
      "BayNo": "N",
      "City": "VANCOUVER",
      "OnStreet": "E CORDOVA ST",
      "AtStreet": "CARRALL ST",
      "Latitude": 49.282323,
      "Longitude": -123.103816,
      "WheelchairAccess": 1,
      "Distance": 1847,
      "Routes": ""
    },
    {
      "StopNo": 50228,
      "Name": "EB E CORDOVA ST NS MAIN ST",
      "BayNo": "N",
      "City": "VANCOUVER",
      "OnStreet": "E CORDOVA ST",
      "AtStreet": "MAIN ST",
      "Latitude": 49.282229,
      "Longitude": -123.099988,
      "WheelchairAccess": 1,
      "Distance": 1868,
      "Routes": "003, 008, N8"
    },
    {
      "StopNo": 50229,
      "Name": "SB MAIN ST FS E HASTINGS ST",
      "BayNo": "N",
      "City": "VANCOUVER",
      "OnStreet": "MAIN ST",
      "AtStreet": "E HASTINGS ST",
      "Latitude": 49.28081,
      "Longitude": -123.099812,
      "WheelchairAccess": 1,
      "Distance": 1716,
      "Routes": "003, 004, 007, 008, N8"
    },
    {
      "StopNo": 50230,
      "Name": "SB MAIN ST FS KEEFER ST",
      "BayNo": "N",
      "City": "VANCOUVER",
      "OnStreet": "MAIN ST",
      "AtStreet": "KEEFER ST",
      "Latitude": 49.279029,
      "Longitude": -123.099896,
      "WheelchairAccess": 1,
      "Distance": 1522,
      "Routes": "003, 008, 019, 022, N19, N8"
    },
    {
      "StopNo": 50232,
      "Name": "SB MAIN ST FS NATIONAL AVE",
      "BayNo": "N",
      "City": "VANCOUVER",
      "OnStreet": "MAIN ST",
      "AtStreet": "NATIONAL AVE",
      "Latitude": 49.274506,
      "Longitude": -123.100141,
      "WheelchairAccess": 1,
      "Distance": 1766,
      "Routes": "003, 008, 019, 022, N19, N8"
    },
    {
      "StopNo": 50233,
      "Name": "MAIN STREET-SCIENCE WORLD STN BAY 1",
      "BayNo": "1",
      "City": "VANCOUVER",
      "OnStreet": "MAIN STREET-SCIENCE WORLD STN",
      "AtStreet": "BAY 1",
      "Latitude": 49.273072,
      "Longitude": -123.100189,
      "WheelchairAccess": 1,
      "Distance": 1686,
      "Routes": "003, 008, 019, N19, N8"
    },
    {
      "StopNo": 50234,
      "Name": "SB MAIN ST FS SWITCHMEN ST",
      "BayNo": "N",
      "City": "VANCOUVER",
      "OnStreet": "MAIN ST",
      "AtStreet": "SWITCHMEN ST",
      "Latitude": 49.270621,
      "Longitude": -123.100821,
      "WheelchairAccess": 1,
      "Distance": 1616,
      "Routes": "003, 008, 019, N19, N8"
    },
    {
      "StopNo": 50235,
      "Name": "SB MAIN ST FS E 3 AVE",
      "BayNo": "N",
      "City": "VANCOUVER",
      "OnStreet": "MAIN ST",
      "AtStreet": "E 3 AVE",
      "Latitude": 49.267991,
      "Longitude": -123.100925,
      "WheelchairAccess": 1,
      "Distance": 1550,
      "Routes": ""
    },
    {
      "StopNo": 50236,
      "Name": "SB MAIN ST FS E 5 AVE--",
      "BayNo": "N",
      "City": "VANCOUVER",
      "OnStreet": "MAIN ST",
      "AtStreet": "E 5 AVE",
      "Latitude": 49.265849,
      "Longitude": -123.100989,
      "WheelchairAccess": 1,
      "Distance": 1534,
      "Routes": "003"
    },
    {
      "StopNo": 50237,
      "Name": "SB MAIN ST NS E 8 AVE",
      "BayNo": "N",
      "City": "VANCOUVER",
      "OnStreet": "MAIN ST",
      "AtStreet": "E 8 AVE",
      "Latitude": 49.26388,
      "Longitude": -123.10109,
      "WheelchairAccess": 1,
      "Distance": 1555,
      "Routes": ""
    },
    {
      "StopNo": 50238,
      "Name": "SB MAIN ST FS E BROADWAY",
      "BayNo": "N",
      "City": "VANCOUVER",
      "OnStreet": "MAIN ST",
      "AtStreet": "E BROADWAY",
      "Latitude": 49.262541,
      "Longitude": -123.10114,
      "WheelchairAccess": 1,
      "Distance": 1585,
      "Routes": ""
    },
    {
      "StopNo": 50240,
      "Name": "SB MAIN ST FS E 12 AVE",
      "BayNo": "N",
      "City": "VANCOUVER",
      "OnStreet": "MAIN ST",
      "AtStreet": "E 12 AVE",
      "Latitude": 49.259888,
      "Longitude": -123.10127,
      "WheelchairAccess": 1,
      "Distance": 1684,
      "Routes": "003"
    },
    {
      "StopNo": 50241,
      "Name": "SB MAIN ST FS E 14 AVE",
      "BayNo": "N",
      "City": "VANCOUVER",
      "OnStreet": "MAIN ST",
      "AtStreet": "E 14 AVE",
      "Latitude": 49.258082,
      "Longitude": -123.101305,
      "WheelchairAccess": 1,
      "Distance": 1774,
      "Routes": "003"
    },
    {
      "StopNo": 50242,
      "Name": "SB MAIN ST FS E 16 AVE",
      "BayNo": "N",
      "City": "VANCOUVER",
      "OnStreet": "MAIN ST",
      "AtStreet": "E 16 AVE",
      "Latitude": 49.256251,
      "Longitude": -123.101386,
      "WheelchairAccess": 1,
      "Distance": 1885,
      "Routes": "003"
    },
    {
      "StopNo": 50244,
      "Name": "SB MAIN ST FS E 20 AVE",
      "BayNo": "N",
      "City": "VANCOUVER",
      "OnStreet": "MAIN ST",
      "AtStreet": "E 20 AVE",
      "Latitude": 49.252395,
      "Longitude": -123.101095,
      "WheelchairAccess": 1,
      "Distance": 1326,
      "Routes": "003"
    },
    {
      "StopNo": 50245,
      "Name": "SB MAIN ST FS E 22 AVE",
      "BayNo": "N",
      "City": "VANCOUVER",
      "OnStreet": "MAIN ST",
      "AtStreet": "E 22 AVE",
      "Latitude": 49.250676,
      "Longitude": -123.101089,
      "WheelchairAccess": 1,
      "Distance": 1897,
      "Routes": "003"
    },
    {
      "StopNo": 50246,
      "Name": "SB MAIN ST FS E KING EDWARD AVE",
      "BayNo": "N",
      "City": "VANCOUVER",
      "OnStreet": "MAIN ST",
      "AtStreet": "E KING EDWARD AVE",
      "Latitude": 49.248466,
      "Longitude": -123.101194,
      "WheelchairAccess": 1,
      "Distance": 1772,
      "Routes": "003"
    },
    {
      "StopNo": 50247,
      "Name": "SB MAIN ST NS E 28 AV",
      "BayNo": "N",
      "City": "VANCOUVER",
      "OnStreet": "MAIN ST",
      "AtStreet": "E 28 AVE",
      "Latitude": 49.24614,
      "Longitude": -123.10138,
      "WheelchairAccess": 1,
      "Distance": 1675,
      "Routes": ""
    },
    {
      "StopNo": 50248,
      "Name": "SB MAIN ST FS E 30 AVE",
      "BayNo": "N",
      "City": "VANCOUVER",
      "OnStreet": "MAIN ST",
      "AtStreet": "E 30 AVE",
      "Latitude": 49.243003,
      "Longitude": -123.101498,
      "WheelchairAccess": 1,
      "Distance": 1592,
      "Routes": "003"
    },
    {
      "StopNo": 50249,
      "Name": "SB MAIN ST FS E 33 AVE",
      "BayNo": "N",
      "City": "VANCOUVER",
      "OnStreet": "MAIN ST",
      "AtStreet": "E 33 AVE",
      "Latitude": 49.240211,
      "Longitude": -123.101629,
      "WheelchairAccess": 1,
      "Distance": 1582,
      "Routes": "003"
    },
    {
      "StopNo": 50250,
      "Name": "SB MAIN ST FS E 36 AVE",
      "BayNo": "N",
      "City": "VANCOUVER",
      "OnStreet": "MAIN ST",
      "AtStreet": "E 36 AVE",
      "Latitude": 49.23788,
      "Longitude": -123.101715,
      "WheelchairAccess": 1,
      "Distance": 1618,
      "Routes": "003"
    },
    {
      "StopNo": 50253,
      "Name": "EB E 41 AVE NS MAIN ST",
      "BayNo": "N",
      "City": "VANCOUVER",
      "OnStreet": "E 41 AVE",
      "AtStreet": "MAIN ST",
      "Latitude": 49.232967,
      "Longitude": -123.101913,
      "WheelchairAccess": 1,
      "Distance": 1819,
      "Routes": "R4"
    },
    {
      "StopNo": 50255,
      "Name": "SB MAIN ST FS E 43 AVE",
      "BayNo": "N",
      "City": "VANCOUVER",
      "OnStreet": "MAIN ST",
      "AtStreet": "E 43 AVE",
      "Latitude": 49.230612,
      "Longitude": -123.101591,
      "WheelchairAccess": 1,
      "Distance": 1938,
      "Routes": "003"
    },
    {
      "StopNo": 50256,
      "Name": "SB MAIN ST FS E 46 AVE",
      "BayNo": "N",
      "City": "VANCOUVER",
      "OnStreet": "MAIN ST",
      "AtStreet": "E 46 AVE",
      "Latitude": 49.228145,
      "Longitude": -123.101625,
      "WheelchairAccess": 1,
      "Distance": 1400,
      "Routes": "003"
    },
    {
      "StopNo": 50258,
      "Name": "SB MAIN ST FS E 51 AVE",
      "BayNo": "N",
      "City": "VANCOUVER",
      "OnStreet": "MAIN ST",
      "AtStreet": "E 51 AVE",
      "Latitude": 49.223508,
      "Longitude": -123.101804,
      "WheelchairAccess": 1,
      "Distance": 1814,
      "Routes": "003"
    },
    {
      "StopNo": 50259,
      "Name": "SB MAIN ST FS E 54 AVE",
      "BayNo": "N",
      "City": "VANCOUVER",
      "OnStreet": "MAIN ST",
      "AtStreet": "E 54 AVE",
      "Latitude": 49.22075,
      "Longitude": -123.101949,
      "WheelchairAccess": 1,
      "Distance": 1699,
      "Routes": "003"
    },
    {
      "StopNo": 50260,
      "Name": "SB MAIN ST FS E 56 AVE",
      "BayNo": "N",
      "City": "VANCOUVER",
      "OnStreet": "MAIN ST",
      "AtStreet": "E 56 AVE",
      "Latitude": 49.218969,
      "Longitude": -123.102003,
      "WheelchairAccess": 1,
      "Distance": 1649,
      "Routes": "003"
    },
    {
      "StopNo": 50263,
      "Name": "SB MAIN ST FS E 62 AVE",
      "BayNo": "N",
      "City": "VANCOUVER",
      "OnStreet": "MAIN ST",
      "AtStreet": "E 62 AVE",
      "Latitude": 49.213842,
      "Longitude": -123.102217,
      "WheelchairAccess": 1,
      "Distance": 1638,
      "Routes": "003"
    },
    {
      "StopNo": 50264,
      "Name": "SB MAIN ST FS E 63 AVE",
      "BayNo": "N",
      "City": "VANCOUVER",
      "OnStreet": "MAIN ST",
      "AtStreet": "E 63 AVE",
      "Latitude": 49.212975,
      "Longitude": -123.102245,
      "WheelchairAccess": 1,
      "Distance": 1655,
      "Routes": "003"
    },
    {
      "StopNo": 50265,
      "Name": "EB E 65 AVE FS MAIN ST",
      "BayNo": "N",
      "City": "VANCOUVER",
      "OnStreet": "E 65 AVE",
      "AtStreet": "MAIN ST",
      "Latitude": 49.211695,
      "Longitude": -123.101625,
      "WheelchairAccess": 1,
      "Distance": 1644,
      "Routes": "003"
    },
    {
      "StopNo": 50272,
      "Name": "NB BLANCA ST FS W 10 AVE",
      "BayNo": "N",
      "City": "VANCOUVER",
      "OnStreet": "BLANCA ST",
      "AtStreet": "W 10 AVE",
      "Latitude": 49.264289,
      "Longitude": -123.215067,
      "WheelchairAccess": 1,
      "Distance": 758,
      "Routes": ""
    },
    {
      "StopNo": 50273,
      "Name": "BLANCA LOOP BAY 1",
      "BayNo": "1",
      "City": "VANCOUVER",
      "OnStreet": "BLANCA LOOP",
      "AtStreet": "BAY 1",
      "Latitude": 49.265243,
      "Longitude": -123.21585,
      "WheelchairAccess": 1,
      "Distance": 800,
      "Routes": "004, 014"
    },
    {
      "StopNo": 50274,
      "Name": "EB W 10 AVE FS BLANCA ST",
      "BayNo": "N",
      "City": "VANCOUVER",
      "OnStreet": "W 10 AVE",
      "AtStreet": "BLANCA ST",
      "Latitude": 49.263836,
      "Longitude": -123.214641,
      "WheelchairAccess": 1,
      "Distance": 741,
      "Routes": "014, 099, N17"
    },
    {
      "StopNo": 50275,
      "Name": "EB W 10 AVE FS TOLMIE ST",
      "BayNo": "N",
      "City": "VANCOUVER",
      "OnStreet": "W 10 AVE",
      "AtStreet": "TOLMIE ST",
      "Latitude": 49.26381,
      "Longitude": -123.211737,
      "WheelchairAccess": 1,
      "Distance": 543,
      "Routes": "014, N17"
    },
    {
      "StopNo": 50276,
      "Name": "EB W 10 AVE FS SASAMAT ST",
      "BayNo": "N",
      "City": "VANCOUVER",
      "OnStreet": "W 10 AVE",
      "AtStreet": "SASAMAT ST",
      "Latitude": 49.263764,
      "Longitude": -123.208525,
      "WheelchairAccess": 1,
      "Distance": 345,
      "Routes": "014, 099, N17"
    },
    {
      "StopNo": 50277,
      "Name": "EB W 10 AVE FS TRIMBLE ST",
      "BayNo": "N",
      "City": "VANCOUVER",
      "OnStreet": "W 10 AVE",
      "AtStreet": "TRIMBLE ST",
      "Latitude": 49.263689,
      "Longitude": -123.205581,
      "WheelchairAccess": 1,
      "Distance": 233,
      "Routes": "014, N17"
    },
    {
      "StopNo": 50278,
      "Name": "EB W 10 AVE FS DISCOVERY ST",
      "BayNo": "N",
      "City": "VANCOUVER",
      "OnStreet": "W 10 AVE",
      "AtStreet": "DISCOVERY ST",
      "Latitude": 49.263657,
      "Longitude": -123.202595,
      "WheelchairAccess": 1,
      "Distance": 283,
      "Routes": "014, N17"
    },
    {
      "StopNo": 50279,
      "Name": "EB W 10 AVE FS COURTENAY ST",
      "BayNo": "N",
      "City": "VANCOUVER",
      "OnStreet": "W 10 AVE",
      "AtStreet": "COURTENAY ST",
      "Latitude": 49.263605,
      "Longitude": -123.199436,
      "WheelchairAccess": 1,
      "Distance": 1440,
      "Routes": "014, N17"
    },
    {
      "StopNo": 50280,
      "Name": "EB W 10 AVE FS CAMOSUN ST",
      "BayNo": "N",
      "City": "VANCOUVER",
      "OnStreet": "W 10 AVE",
      "AtStreet": "CAMOSUN ST",
      "Latitude": 49.263564,
      "Longitude": -123.196532,
      "WheelchairAccess": 1,
      "Distance": 1234,
      "Routes": "014, N17"
    },
    {
      "StopNo": 50281,
      "Name": "EB W 10 AVE FS CROWN ST",
      "BayNo": "N",
      "City": "VANCOUVER",
      "OnStreet": "W 10 AVE",
      "AtStreet": "CROWN ST",
      "Latitude": 49.263526,
      "Longitude": -123.193422,
      "WheelchairAccess": 1,
      "Distance": 1015,
      "Routes": "014, N17"
    },
    {
      "StopNo": 50282,
      "Name": "EB W 10 AVE AT WALLACE ST",
      "BayNo": "N",
      "City": "VANCOUVER",
      "OnStreet": "W 10 AVE",
      "AtStreet": "WALLACE ST",
      "Latitude": 49.263472,
      "Longitude": -123.190678,
      "WheelchairAccess": 1,
      "Distance": 825,
      "Routes": "014, N17"
    },
    {
      "StopNo": 50283,
      "Name": "EB W 10 AVE FS HIGHBURY ST",
      "BayNo": "N",
      "City": "VANCOUVER",
      "OnStreet": "W 10 AVE",
      "AtStreet": "HIGHBURY ST",
      "Latitude": 49.263434,
      "Longitude": -123.187456,
      "WheelchairAccess": 1,
      "Distance": 608,
      "Routes": "014, N17"
    },
    {
      "StopNo": 50284,
      "Name": "WB W 41 AVE FS GRANVILLE ST",
      "BayNo": "N",
      "City": "VANCOUVER",
      "OnStreet": "W 41 AVE",
      "AtStreet": "GRANVILLE ST",
      "Latitude": 49.234426,
      "Longitude": -123.140514,
      "WheelchairAccess": 1,
      "Distance": 1044,
      "Routes": "R4"
    },
    {
      "StopNo": 50285,
      "Name": "WB W 41 AVE FS MARGUERITE ST",
      "BayNo": "N",
      "City": "VANCOUVER",
      "OnStreet": "W 41 AVE",
      "AtStreet": "MARGUERITE ST",
      "Latitude": 49.234499,
      "Longitude": -123.145101,
      "WheelchairAccess": 1,
      "Distance": 1306,
      "Routes": "041"
    },
    {
      "StopNo": 50286,
      "Name": "WB W 41 AVE FS ANGUS DR",
      "BayNo": "N",
      "City": "VANCOUVER",
      "OnStreet": "W 41 AVE",
      "AtStreet": "ANGUS DR",
      "Latitude": 49.234547,
      "Longitude": -123.148146,
      "WheelchairAccess": 0,
      "Distance": 1495,
      "Routes": "041"
    },
    {
      "StopNo": 50288,
      "Name": "WB W 41 AVE FS MAPLE ST",
      "BayNo": "N",
      "City": "VANCOUVER",
      "OnStreet": "W 41 AVE",
      "AtStreet": "MAPLE ST",
      "Latitude": 49.234633,
      "Longitude": -123.152449,
      "WheelchairAccess": 1,
      "Distance": 700,
      "Routes": "041"
    },
    {
      "StopNo": 50289,
      "Name": "WB W 41 AVE FS WEST BLVD",
      "BayNo": "N",
      "City": "VANCOUVER",
      "OnStreet": "W 41 AVE",
      "AtStreet": "WEST BLVD",
      "Latitude": 49.234649,
      "Longitude": -123.156193,
      "WheelchairAccess": 1,
      "Distance": 683,
      "Routes": ""
    },
    {
      "StopNo": 50290,
      "Name": "WB W 41 AVE FS VINE ST",
      "BayNo": "N",
      "City": "VANCOUVER",
      "OnStreet": "W 41 AVE",
      "AtStreet": "VINE ST",
      "Latitude": 49.234721,
      "Longitude": -123.160343,
      "WheelchairAccess": 1,
      "Distance": 778,
      "Routes": "041"
    },
    {
      "StopNo": 50291,
      "Name": "WB W 41 AVE FS LARCH ST",
      "BayNo": "N",
      "City": "VANCOUVER",
      "OnStreet": "W 41 AVE",
      "AtStreet": "LARCH ST",
      "Latitude": 49.234767,
      "Longitude": -123.163165,
      "WheelchairAccess": 0,
      "Distance": 896,
      "Routes": "041"
    },
    {
      "StopNo": 50292,
      "Name": "WB W 41 AVE FS MACDONALD ST",
      "BayNo": "N",
      "City": "VANCOUVER",
      "OnStreet": "W 41 AVE",
      "AtStreet": "MACDONALD ST",
      "Latitude": 49.23481,
      "Longitude": -123.167912,
      "WheelchairAccess": 1,
      "Distance": 1154,
      "Routes": "041"
    },
    {
      "StopNo": 50293,
      "Name": "WB W 41 AVE FS MACKENZIE ST",
      "BayNo": "N",
      "City": "VANCOUVER",
      "OnStreet": "W 41 AVE",
      "AtStreet": "MACKENZIE ST",
      "Latitude": 49.234819,
      "Longitude": -123.170795,
      "WheelchairAccess": 1,
      "Distance": 1331,
      "Routes": "002, 041, N22"
    },
    {
      "StopNo": 50294,
      "Name": "WB W 41 AVE FS CARNARVON ST",
      "BayNo": "N",
      "City": "VANCOUVER",
      "OnStreet": "W 41 AVE",
      "AtStreet": "CARNARVON ST",
      "Latitude": 49.23482,
      "Longitude": -123.173542,
      "WheelchairAccess": 1,
      "Distance": 1508,
      "Routes": "R4"
    },
    {
      "StopNo": 50295,
      "Name": "WB W 41 AVE FS BALACLAVA ST",
      "BayNo": "N",
      "City": "VANCOUVER",
      "OnStreet": "W 41 AVE",
      "AtStreet": "BALACLAVA ST",
      "Latitude": 49.234827,
      "Longitude": -123.17724,
      "WheelchairAccess": 0,
      "Distance": 1753,
      "Routes": ""
    },
    {
      "StopNo": 50296,
      "Name": "WB W 41 AVE FS BLENHEIM ST",
      "BayNo": "N",
      "City": "VANCOUVER",
      "OnStreet": "W 41 AVE",
      "AtStreet": "BLENHEIM ST",
      "Latitude": 49.234831,
      "Longitude": -123.179103,
      "WheelchairAccess": 1,
      "Distance": 658,
      "Routes": "002, 041, N22"
    },
    {
      "StopNo": 50297,
      "Name": "WB W 41 AVE FS COLLINGWOOD ST",
      "BayNo": "N",
      "City": "VANCOUVER",
      "OnStreet": "W 41 AVE",
      "AtStreet": "COLLINGWOOD ST",
      "Latitude": 49.234842,
      "Longitude": -123.182673,
      "WheelchairAccess": 1,
      "Distance": 686,
      "Routes": "002, 041, N22"
    },
    {
      "StopNo": 50298,
      "Name": "DUNBAR LOOP BAY 6",
      "BayNo": "6",
      "City": "VANCOUVER",
      "OnStreet": "DUNBAR LOOP",
      "AtStreet": "BAY 6",
      "Latitude": 49.235129,
      "Longitude": -123.185234,
      "WheelchairAccess": 1,
      "Distance": 735,
      "Routes": "007"
    },
    {
      "StopNo": 50299,
      "Name": "NB DUNBAR ST FS W 39 AVE",
      "BayNo": "N",
      "City": "VANCOUVER",
      "OnStreet": "DUNBAR ST",
      "AtStreet": "W 39 AVE",
      "Latitude": 49.236747,
      "Longitude": -123.185216,
      "WheelchairAccess": 1,
      "Distance": 590,
      "Routes": "007"
    },
    {
      "StopNo": 50300,
      "Name": "NB DUNBAR ST FS W 38 AVE",
      "BayNo": "N",
      "City": "VANCOUVER",
      "OnStreet": "DUNBAR ST",
      "AtStreet": "W 38 AVE",
      "Latitude": 49.238307,
      "Longitude": -123.185208,
      "WheelchairAccess": 1,
      "Distance": 473,
      "Routes": "007"
    },
    {
      "StopNo": 50301,
      "Name": "NB DUNBAR ST FS W 36 AVE",
      "BayNo": "N",
      "City": "VANCOUVER",
      "OnStreet": "DUNBAR ST",
      "AtStreet": "W 36 AVE",
      "Latitude": 49.239851,
      "Longitude": -123.185157,
      "WheelchairAccess": 0,
      "Distance": 397,
      "Routes": "007"
    },
    {
      "StopNo": 50302,
      "Name": "NB DUNBAR ST FS W 34 AVE",
      "BayNo": "N",
      "City": "VANCOUVER",
      "OnStreet": "DUNBAR ST",
      "AtStreet": "W 34 AVE",
      "Latitude": 49.241702,
      "Longitude": -123.185172,
      "WheelchairAccess": 0,
      "Distance": 401,
      "Routes": "007"
    },
    {
      "StopNo": 50303,
      "Name": "NB DUNBAR ST FS W 31 AVE",
      "BayNo": "N",
      "City": "VANCOUVER",
      "OnStreet": "DUNBAR ST",
      "AtStreet": "W 31 AVE",
      "Latitude": 49.244597,
      "Longitude": -123.185135,
      "WheelchairAccess": 1,
      "Distance": 576,
      "Routes": "007"
    },
    {
      "StopNo": 50304,
      "Name": "NB DUNBAR ST FS W 30 AVE",
      "BayNo": "N",
      "City": "VANCOUVER",
      "OnStreet": "DUNBAR ST",
      "AtStreet": "W 30 AVE",
      "Latitude": 49.245532,
      "Longitude": -123.185125,
      "WheelchairAccess": 1,
      "Distance": 657,
      "Routes": "007"
    },
    {
      "StopNo": 50305,
      "Name": "NB DUNBAR ST FS W 28 AVE",
      "BayNo": "N",
      "City": "VANCOUVER",
      "OnStreet": "DUNBAR ST",
      "AtStreet": "W 28 AVE",
      "Latitude": 49.247382,
      "Longitude": -123.185094,
      "WheelchairAccess": 1,
      "Distance": 832,
      "Routes": "007"
    },
    {
      "StopNo": 50306,
      "Name": "NB DUNBAR ST FS W 26 AVE",
      "BayNo": "N",
      "City": "VANCOUVER",
      "OnStreet": "DUNBAR ST",
      "AtStreet": "W 26 AVE",
      "Latitude": 49.249282,
      "Longitude": -123.185078,
      "WheelchairAccess": 1,
      "Distance": 1024,
      "Routes": ""
    },
    {
      "StopNo": 50307,
      "Name": "NB DUNBAR ST FS W KING EDWARD AVE",
      "BayNo": "N",
      "City": "VANCOUVER",
      "OnStreet": "DUNBAR ST",
      "AtStreet": "W KING EDWARD AVE",
      "Latitude": 49.250494,
      "Longitude": -123.185062,
      "WheelchairAccess": 1,
      "Distance": 1150,
      "Routes": "007, 025"
    },
    {
      "StopNo": 50308,
      "Name": "NB DUNBAR ST FS W 22 AVE",
      "BayNo": "N",
      "City": "VANCOUVER",
      "OnStreet": "DUNBAR ST",
      "AtStreet": "W 22 AVE",
      "Latitude": 49.253177,
      "Longitude": -123.18504,
      "WheelchairAccess": 1,
      "Distance": 1435,
      "Routes": "007, 025"
    },
    {
      "StopNo": 50309,
      "Name": "NB DUNBAR ST FS W 20 AVE",
      "BayNo": "N",
      "City": "VANCOUVER",
      "OnStreet": "DUNBAR ST",
      "AtStreet": "W 20 AVE",
      "Latitude": 49.255001,
      "Longitude": -123.185013,
      "WheelchairAccess": 1,
      "Distance": 1631,
      "Routes": ""
    },
    {
      "StopNo": 50310,
      "Name": "NB DUNBAR ST FS W 18 AVE",
      "BayNo": "N",
      "City": "VANCOUVER",
      "OnStreet": "DUNBAR ST",
      "AtStreet": "W 18 AVE",
      "Latitude": 49.256755,
      "Longitude": -123.185003,
      "WheelchairAccess": 1,
      "Distance": 1821,
      "Routes": "007, 025"
    },
    {
      "StopNo": 50311,
      "Name": "NB DUNBAR ST NS W 16 AVE",
      "BayNo": "N",
      "City": "VANCOUVER",
      "OnStreet": "DUNBAR ST",
      "AtStreet": "W 16 AVE",
      "Latitude": 49.257644,
      "Longitude": -123.184993,
      "WheelchairAccess": 1,
      "Distance": 1918,
      "Routes": ""
    },
    {
      "StopNo": 50312,
      "Name": "NB DUNBAR DIVERSION FS W 14 AVE",
      "BayNo": "N",
      "City": "VANCOUVER",
      "OnStreet": "DUNBAR DIVERSION",
      "AtStreet": "W 14 AVE",
      "Latitude": 49.260126,
      "Longitude": -123.184213,
      "WheelchairAccess": 0,
      "Distance": 699,
      "Routes": "007"
    },
    {
      "StopNo": 50313,
      "Name": "NB ALMA ST FS W 12 AVE",
      "BayNo": "N",
      "City": "VANCOUVER",
      "OnStreet": "ALMA ST",
      "AtStreet": "W 12 AVE",
      "Latitude": 49.261926,
      "Longitude": -123.185815,
      "WheelchairAccess": 1,
      "Distance": 605,
      "Routes": "007"
    },
    {
      "StopNo": 50314,
      "Name": "NB ALMA ST FS W 10 AVE",
      "BayNo": "N",
      "City": "VANCOUVER",
      "OnStreet": "ALMA ST",
      "AtStreet": "W 10 AVE",
      "Latitude": 49.263872,
      "Longitude": -123.185744,
      "WheelchairAccess": 1,
      "Distance": 475,
      "Routes": "007, 014, N17"
    },
    {
      "StopNo": 50315,
      "Name": "EB W BROADWAY FS ALMA ST-",
      "BayNo": "N",
      "City": "VANCOUVER",
      "OnStreet": "W BROADWAY",
      "AtStreet": "ALMA ST",
      "Latitude": 49.264278,
      "Longitude": -123.185239,
      "WheelchairAccess": 1,
      "Distance": 423,
      "Routes": "009, 014, N17"
    },
    {
      "StopNo": 50319,
      "Name": "EB W BROADWAY FS MACDONALD ST",
      "BayNo": "N",
      "City": "VANCOUVER",
      "OnStreet": "W BROADWAY",
      "AtStreet": "MACDONALD ST",
      "Latitude": 49.263995,
      "Longitude": -123.167357,
      "WheelchairAccess": 1,
      "Distance": 928,
      "Routes": "009, 099, N17"
    },
    {
      "StopNo": 50320,
      "Name": "EB W BROADWAY FS TRAFALGAR ST",
      "BayNo": "N",
      "City": "VANCOUVER",
      "OnStreet": "W BROADWAY",
      "AtStreet": "TRAFALGAR ST",
      "Latitude": 49.263906,
      "Longitude": -123.164293,
      "WheelchairAccess": 1,
      "Distance": 714,
      "Routes": "009, N17"
    },
    {
      "StopNo": 50321,
      "Name": "EB W BROADWAY FS LARCH ST",
      "BayNo": "N",
      "City": "VANCOUVER",
      "OnStreet": "W BROADWAY",
      "AtStreet": "LARCH ST",
      "Latitude": 49.263904,
      "Longitude": -123.16196,
      "WheelchairAccess": 1,
      "Distance": 554,
      "Routes": "009, N17"
    },
    {
      "StopNo": 50322,
      "Name": "EB W BROADWAY FS VINE ST",
      "BayNo": "N",
      "City": "VANCOUVER",
      "OnStreet": "W BROADWAY",
      "AtStreet": "VINE ST",
      "Latitude": 49.263809,
      "Longitude": -123.157195,
      "WheelchairAccess": 1,
      "Distance": 273,
      "Routes": "009, N17"
    },
    {
      "StopNo": 50323,
      "Name": "EB W BROADWAY NS ARBUTUS ST",
      "BayNo": "N",
      "City": "VANCOUVER",
      "OnStreet": "W BROADWAY",
      "AtStreet": "ARBUTUS ST",
      "Latitude": 49.263766,
      "Longitude": -123.154253,
      "WheelchairAccess": 1,
      "Distance": 222,
      "Routes": "009, N17"
    },
    {
      "StopNo": 50324,
      "Name": "EB W BROADWAY FS MAPLE ST",
      "BayNo": "N",
      "City": "VANCOUVER",
      "OnStreet": "W BROADWAY",
      "AtStreet": "MAPLE ST",
      "Latitude": 49.263702,
      "Longitude": -123.149974,
      "WheelchairAccess": 1,
      "Distance": 1477,
      "Routes": ""
    },
    {
      "StopNo": 50325,
      "Name": "EB W BROADWAY FS BURRARD ST",
      "BayNo": "N",
      "City": "VANCOUVER",
      "OnStreet": "W BROADWAY",
      "AtStreet": "BURRARD ST",
      "Latitude": 49.263611,
      "Longitude": -123.145163,
      "WheelchairAccess": 1,
      "Distance": 1136,
      "Routes": "009, N17"
    },
    {
      "StopNo": 50326,
      "Name": "EB W BROADWAY FS GRANVILLE ST-",
      "BayNo": "N",
      "City": "VANCOUVER",
      "OnStreet": "W BROADWAY",
      "AtStreet": "GRANVILLE ST",
      "Latitude": 49.263504,
      "Longitude": -123.137941,
      "WheelchairAccess": 1,
      "Distance": 637,
      "Routes": ""
    },
    {
      "StopNo": 50327,
      "Name": "EB W BROADWAY FS HEMLOCK ST",
      "BayNo": "N",
      "City": "VANCOUVER",
      "OnStreet": "W BROADWAY",
      "AtStreet": "HEMLOCK ST",
      "Latitude": 49.263448,
      "Longitude": -123.134715,
      "WheelchairAccess": 1,
      "Distance": 434,
      "Routes": "009, N9"
    },
    {
      "StopNo": 50328,
      "Name": "EB W BROADWAY FS ALDER ST",
      "BayNo": "N",
      "City": "VANCOUVER",
      "OnStreet": "W BROADWAY",
      "AtStreet": "ALDER ST",
      "Latitude": 49.263381,
      "Longitude": -123.130979,
      "WheelchairAccess": 1,
      "Distance": 273,
      "Routes": "009, N9"
    },
    {
      "StopNo": 50329,
      "Name": "EB W BROADWAY NS OAK ST",
      "BayNo": "N",
      "City": "VANCOUVER",
      "OnStreet": "W BROADWAY",
      "AtStreet": "OAK ST",
      "Latitude": 49.263313,
      "Longitude": -123.126858,
      "WheelchairAccess": 0,
      "Distance": 1619,
      "Routes": ""
    },
    {
      "StopNo": 50330,
      "Name": "SB OAK ST FS W BROADWAY",
      "BayNo": "N",
      "City": "VANCOUVER",
      "OnStreet": "OAK ST",
      "AtStreet": "W BROADWAY",
      "Latitude": 49.263054,
      "Longitude": -123.126731,
      "WheelchairAccess": 1,
      "Distance": 1615,
      "Routes": ""
    },
    {
      "StopNo": 50331,
      "Name": "SB OAK ST FS W 12 AVE",
      "BayNo": "N",
      "City": "VANCOUVER",
      "OnStreet": "OAK ST",
      "AtStreet": "W 12 AVE",
      "Latitude": 49.260251,
      "Longitude": -123.126842,
      "WheelchairAccess": 1,
      "Distance": 1708,
      "Routes": "017"
    },
    {
      "StopNo": 50332,
      "Name": "SB OAK ST FS W 14 AVE",
      "BayNo": "N",
      "City": "VANCOUVER",
      "OnStreet": "OAK ST",
      "AtStreet": "W 14 AVE",
      "Latitude": 49.258511,
      "Longitude": -123.126892,
      "WheelchairAccess": 1,
      "Distance": 1789,
      "Routes": ""
    },
    {
      "StopNo": 50333,
      "Name": "SB OAK ST FS W 16 AVE",
      "BayNo": "N",
      "City": "VANCOUVER",
      "OnStreet": "OAK ST",
      "AtStreet": "W 16 AVE",
      "Latitude": 49.256751,
      "Longitude": -123.127351,
      "WheelchairAccess": 1,
      "Distance": 1914,
      "Routes": "017"
    },
    {
      "StopNo": 50335,
      "Name": "SB OAK ST FS DOUGLAS CRES",
      "BayNo": "N",
      "City": "VANCOUVER",
      "OnStreet": "OAK ST",
      "AtStreet": "DOUGLAS CRES",
      "Latitude": 49.254123,
      "Longitude": -123.127471,
      "WheelchairAccess": 1,
      "Distance": 1499,
      "Routes": "017"
    },
    {
      "StopNo": 50336,
      "Name": "SB OAK ST FS BALFOUR AVE",
      "BayNo": "N",
      "City": "VANCOUVER",
      "OnStreet": "OAK ST",
      "AtStreet": "BALFOUR AVE",
      "Latitude": 49.251423,
      "Longitude": -123.12759,
      "WheelchairAccess": 1,
      "Distance": 1201,
      "Routes": "017"
    },
    {
      "StopNo": 50337,
      "Name": "SB OAK ST FS W KING EDWARD AVE",
      "BayNo": "N",
      "City": "VANCOUVER",
      "OnStreet": "OAK ST",
      "AtStreet": "W KING EDWARD AVE",
      "Latitude": 49.248653,
      "Longitude": -123.127716,
      "WheelchairAccess": 1,
      "Distance": 895,
      "Routes": "017"
    },
    {
      "StopNo": 50338,
      "Name": "SB OAK ST FS NANTON AVE",
      "BayNo": "N",
      "City": "VANCOUVER",
      "OnStreet": "OAK ST",
      "AtStreet": "NANTON AVE",
      "Latitude": 49.245988,
      "Longitude": -123.127793,
      "WheelchairAccess": 0,
      "Distance": 604,
      "Routes": "017"
    },
    {
      "StopNo": 50339,
      "Name": "SB OAK ST FS DEVONSHIRE CRES",
      "BayNo": "N",
      "City": "VANCOUVER",
      "OnStreet": "OAK ST",
      "AtStreet": "DEVONSHIRE CRES",
      "Latitude": 49.244095,
      "Longitude": -123.127861,
      "WheelchairAccess": 1,
      "Distance": 401,
      "Routes": "017"
    },
    {
      "StopNo": 50341,
      "Name": "SB OAK ST FS W 33 AVE",
      "BayNo": "N",
      "City": "VANCOUVER",
      "OnStreet": "OAK ST",
      "AtStreet": "W 33 AVE",
      "Latitude": 49.241077,
      "Longitude": -123.12796,
      "WheelchairAccess": 1,
      "Distance": 143,
      "Routes": "017"
    },
    {
      "StopNo": 50342,
      "Name": "SB OAK ST FS W 37 AVE",
      "BayNo": "N",
      "City": "VANCOUVER",
      "OnStreet": "OAK ST",
      "AtStreet": "W 37 AVE",
      "Latitude": 49.237306,
      "Longitude": -123.128102,
      "WheelchairAccess": 1,
      "Distance": 401,
      "Routes": "017"
    },
    {
      "StopNo": 50343,
      "Name": "SB OAK ST AT 5600 BLOCK",
      "BayNo": "N",
      "City": "VANCOUVER",
      "OnStreet": "OAK ST",
      "AtStreet": "5600 BLOCK",
      "Latitude": 49.234879,
      "Longitude": -123.128181,
      "WheelchairAccess": 0,
      "Distance": 662,
      "Routes": ""
    },
    {
      "StopNo": 50344,
      "Name": "NB BLANCA ST FS W 8 AVE",
      "BayNo": "N",
      "City": "VANCOUVER",
      "OnStreet": "BLANCA ST",
      "AtStreet": "W 8 AVE",
      "Latitude": 49.266051,
      "Longitude": -123.215008,
      "WheelchairAccess": 0,
      "Distance": 738,
      "Routes": ""
    },
    {
      "StopNo": 50345,
      "Name": "NB BLANCA ST FS W 6 AVE",
      "BayNo": "N",
      "City": "VANCOUVER",
      "OnStreet": "BLANCA ST",
      "AtStreet": "W 6 AVE",
      "Latitude": 49.267689,
      "Longitude": -123.214951,
      "WheelchairAccess": 0,
      "Distance": 764,
      "Routes": ""
    },
    {
      "StopNo": 50346,
      "Name": "EB W 4 AVE FS BLANCA ST",
      "BayNo": "N",
      "City": "VANCOUVER",
      "OnStreet": "W 4 AVE",
      "AtStreet": "BLANCA ST",
      "Latitude": 49.269016,
      "Longitude": -123.214363,
      "WheelchairAccess": 1,
      "Distance": 781,
      "Routes": ""
    },
    {
      "StopNo": 50347,
      "Name": "EB W 4 AVE FS TOLMIE ST",
      "BayNo": "N",
      "City": "VANCOUVER",
      "OnStreet": "W 4 AVE",
      "AtStreet": "TOLMIE ST",
      "Latitude": 49.268974,
      "Longitude": -123.21149,
      "WheelchairAccess": 1,
      "Distance": 602,
      "Routes": "004, 044, 084"
    },
    {
      "StopNo": 50349,
      "Name": "EB W 4 AVE NS TRIMBLE ST",
      "BayNo": "N",
      "City": "VANCOUVER",
      "OnStreet": "W 4 AVE",
      "AtStreet": "TRIMBLE ST",
      "Latitude": 49.268907,
      "Longitude": -123.2064,
      "WheelchairAccess": 1,
      "Distance": 371,
      "Routes": "004"
    },
    {
      "StopNo": 50350,
      "Name": "EB W 4 AVE AT 4100 BLOCK",
      "BayNo": "N",
      "City": "VANCOUVER",
      "OnStreet": "W 4 AVE",
      "AtStreet": "4100 BLOCK",
      "Latitude": 49.268679,
      "Longitude": -123.197617,
      "WheelchairAccess": 1,
      "Distance": 1330,
      "Routes": "004, 044, 084"
    },
    {
      "StopNo": 50352,
      "Name": "EB W 4 AVE FS WALLACE ST",
      "BayNo": "N",
      "City": "VANCOUVER",
      "OnStreet": "W 4 AVE",
      "AtStreet": "WALLACE ST",
      "Latitude": 49.26852,
      "Longitude": -123.190183,
      "WheelchairAccess": 1,
      "Distance": 811,
      "Routes": "004"
    },
    {
      "StopNo": 50353,
      "Name": "EB W 4 AVE FS HIGHBURY ST",
      "BayNo": "N",
      "City": "VANCOUVER",
      "OnStreet": "W 4 AVE",
      "AtStreet": "HIGHBURY ST",
      "Latitude": 49.268561,
      "Longitude": -123.187013,
      "WheelchairAccess": 1,
      "Distance": 608,
      "Routes": ""
    },
    {
      "StopNo": 50354,
      "Name": "EB W 4 AVE FS ALMA ST",
      "BayNo": "N",
      "City": "VANCOUVER",
      "OnStreet": "W 4 AVE",
      "AtStreet": "ALMA ST",
      "Latitude": 49.268538,
      "Longitude": -123.185205,
      "WheelchairAccess": 1,
      "Distance": 498,
      "Routes": "004, 007, 044, 084"
    },
    {
      "StopNo": 50355,
      "Name": "SB ALMA ST FS W 4 AVE",
      "BayNo": "N",
      "City": "VANCOUVER",
      "OnStreet": "ALMA ST",
      "AtStreet": "W 4 AVE",
      "Latitude": 49.268214,
      "Longitude": -123.18585,
      "WheelchairAccess": 1,
      "Distance": 516,
      "Routes": "007"
    },
    {
      "StopNo": 50356,
      "Name": "SB ALMA ST FS W 6 AVE",
      "BayNo": "N",
      "City": "VANCOUVER",
      "OnStreet": "ALMA ST",
      "AtStreet": "W 6 AVE",
      "Latitude": 49.266642,
      "Longitude": -123.185897,
      "WheelchairAccess": 0,
      "Distance": 450,
      "Routes": "007"
    },
    {
      "StopNo": 50357,
      "Name": "SB ALMA ST NS W 10 AVE",
      "BayNo": "N",
      "City": "VANCOUVER",
      "OnStreet": "ALMA ST",
      "AtStreet": "W 10 AVE",
      "Latitude": 49.26367,
      "Longitude": -123.186028,
      "WheelchairAccess": 1,
      "Distance": 503,
      "Routes": "014, 099, N17"
    },
    {
      "StopNo": 50359,
      "Name": "SB ALMA ST FS W 12 AVE",
      "BayNo": "N",
      "City": "VANCOUVER",
      "OnStreet": "ALMA ST",
      "AtStreet": "W 12 AVE",
      "Latitude": 49.261267,
      "Longitude": -123.186069,
      "WheelchairAccess": 0,
      "Distance": 670,
      "Routes": "007"
    },
    {
      "StopNo": 50360,
      "Name": "SB DUNBAR DIVERSION NS W 14 AVE",
      "BayNo": "N",
      "City": "VANCOUVER",
      "OnStreet": "DUNBAR DIVERSION",
      "AtStreet": "W 14 AVE",
      "Latitude": 49.259981,
      "Longitude": -123.184374,
      "WheelchairAccess": 1,
      "Distance": 718,
      "Routes": "007"
    },
    {
      "StopNo": 50361,
      "Name": "SB DUNBAR ST FS W 15 AVE",
      "BayNo": "N",
      "City": "VANCOUVER",
      "OnStreet": "DUNBAR ST",
      "AtStreet": "W 15 AVE",
      "Latitude": 49.258657,
      "Longitude": -123.184116,
      "WheelchairAccess": 1,
      "Distance": 845,
      "Routes": "007"
    },
    {
      "StopNo": 50362,
      "Name": "SB DUNBAR ST FS W 17 AVE",
      "BayNo": "N",
      "City": "VANCOUVER",
      "OnStreet": "DUNBAR ST",
      "AtStreet": "W 17 AVE",
      "Latitude": 49.257067,
      "Longitude": -123.185245,
      "WheelchairAccess": 1,
      "Distance": 1858,
      "Routes": "007, 025"
    },
    {
      "StopNo": 50363,
      "Name": "SB DUNBAR ST FS W 19 AVE",
      "BayNo": "N",
      "City": "VANCOUVER",
      "OnStreet": "DUNBAR ST",
      "AtStreet": "W 19 AVE",
      "Latitude": 49.25526,
      "Longitude": -123.185257,
      "WheelchairAccess": 1,
      "Distance": 1663,
      "Routes": ""
    },
    {
      "StopNo": 50364,
      "Name": "SB DUNBAR ST FS W 21 AVE",
      "BayNo": "N",
      "City": "VANCOUVER",
      "OnStreet": "DUNBAR ST",
      "AtStreet": "W 21 AVE",
      "Latitude": 49.253446,
      "Longitude": -123.18526,
      "WheelchairAccess": 1,
      "Distance": 1468,
      "Routes": "007, 025"
    },
    {
      "StopNo": 50365,
      "Name": "SB DUNBAR ST FS W 23 AVE",
      "BayNo": "N",
      "City": "VANCOUVER",
      "OnStreet": "DUNBAR ST",
      "AtStreet": "W 23 AVE",
      "Latitude": 49.251678,
      "Longitude": -123.185303,
      "WheelchairAccess": 1,
      "Distance": 1280,
      "Routes": ""
    },
    {
      "StopNo": 50366,
      "Name": "SB DUNBAR ST FS W KING EDWARD AVE",
      "BayNo": "N",
      "City": "VANCOUVER",
      "OnStreet": "DUNBAR ST",
      "AtStreet": "W KING EDWARD AVE",
      "Latitude": 49.249684,
      "Longitude": -123.185302,
      "WheelchairAccess": 1,
      "Distance": 1072,
      "Routes": "007"
    },
    {
      "StopNo": 50367,
      "Name": "SB DUNBAR ST FS W 27 AVE",
      "BayNo": "N",
      "City": "VANCOUVER",
      "OnStreet": "DUNBAR ST",
      "AtStreet": "W 27 AVE",
      "Latitude": 49.247813,
      "Longitude": -123.185322,
      "WheelchairAccess": 1,
      "Distance": 882,
      "Routes": "007"
    },
    {
      "StopNo": 50368,
      "Name": "SB DUNBAR ST FS W 29 AVE",
      "BayNo": "N",
      "City": "VANCOUVER",
      "OnStreet": "DUNBAR ST",
      "AtStreet": "W 29 AVE",
      "Latitude": 49.245928,
      "Longitude": -123.185332,
      "WheelchairAccess": 1,
      "Distance": 702,
      "Routes": "007"
    },
    {
      "StopNo": 50369,
      "Name": "SB DUNBAR ST FS W 31 AVE",
      "BayNo": "N",
      "City": "VANCOUVER",
      "OnStreet": "DUNBAR ST",
      "AtStreet": "W 31 AVE",
      "Latitude": 49.243962,
      "Longitude": -123.185351,
      "WheelchairAccess": 1,
      "Distance": 537,
      "Routes": "007"
    },
    {
      "StopNo": 50370,
      "Name": "SB DUNBAR ST FS W 33 AVE",
      "BayNo": "N",
      "City": "VANCOUVER",
      "OnStreet": "DUNBAR ST",
      "AtStreet": "W 33 AVE",
      "Latitude": 49.242056,
      "Longitude": -123.185368,
      "WheelchairAccess": 1,
      "Distance": 427,
      "Routes": "007"
    },
    {
      "StopNo": 50371,
      "Name": "SB DUNBAR ST FS W 35 AVE",
      "BayNo": "N",
      "City": "VANCOUVER",
      "OnStreet": "DUNBAR ST",
      "AtStreet": "W 35 AVE",
      "Latitude": 49.240149,
      "Longitude": -123.185397,
      "WheelchairAccess": 0,
      "Distance": 408,
      "Routes": "007"
    },
    {
      "StopNo": 50372,
      "Name": "SB DUNBAR ST FS W 37 AVE",
      "BayNo": "N",
      "City": "VANCOUVER",
      "OnStreet": "DUNBAR ST",
      "AtStreet": "W 37 AVE",
      "Latitude": 49.238349,
      "Longitude": -123.185425,
      "WheelchairAccess": 1,
      "Distance": 483,
      "Routes": "007"
    },
    {
      "StopNo": 50373,
      "Name": "SB DUNBAR ST FS W 39 AVE",
      "BayNo": "N",
      "City": "VANCOUVER",
      "OnStreet": "DUNBAR ST",
      "AtStreet": "W 39 AVE",
      "Latitude": 49.236105,
      "Longitude": -123.18543,
      "WheelchairAccess": 1,
      "Distance": 654,
      "Routes": ""
    },
    {
      "StopNo": 50374,
      "Name": "EB W 41 AVE FS COLLINGWOOD ST",
      "BayNo": "N",
      "City": "VANCOUVER",
      "OnStreet": "W 41 AVE",
      "AtStreet": "COLLINGWOOD ST",
      "Latitude": 49.234687,
      "Longitude": -123.181639,
      "WheelchairAccess": 1,
      "Distance": 684,
      "Routes": "002, 041, N22"
    },
    {
      "StopNo": 50375,
      "Name": "EB W 41 AVE FS BLENHEIM ST",
      "BayNo": "N",
      "City": "VANCOUVER",
      "OnStreet": "W 41 AVE",
      "AtStreet": "BLENHEIM ST",
      "Latitude": 49.234696,
      "Longitude": -123.178303,
      "WheelchairAccess": 1,
      "Distance": 680,
      "Routes": "002, 041, N22"
    },
    {
      "StopNo": 50377,
      "Name": "EB W 41 AVE FS CARNARVON ST",
      "BayNo": "N",
      "City": "VANCOUVER",
      "OnStreet": "W 41 AVE",
      "AtStreet": "CARNARVON ST",
      "Latitude": 49.234677,
      "Longitude": -123.172505,
      "WheelchairAccess": 1,
      "Distance": 1447,
      "Routes": "R4"
    },
    {
      "StopNo": 50378,
      "Name": "EB W 41 AVE FS MACDONALD ST",
      "BayNo": "N",
      "City": "VANCOUVER",
      "OnStreet": "W 41 AVE",
      "AtStreet": "MACDONALD ST",
      "Latitude": 49.234665,
      "Longitude": -123.166968,
      "WheelchairAccess": 1,
      "Distance": 1108,
      "Routes": "041"
    },
    {
      "StopNo": 50379,
      "Name": "EB W 41 AVE FS ELM ST",
      "BayNo": "N",
      "City": "VANCOUVER",
      "OnStreet": "W 41 AVE",
      "AtStreet": "ELM ST",
      "Latitude": 49.234632,
      "Longitude": -123.16364,
      "WheelchairAccess": 1,
      "Distance": 931,
      "Routes": "041"
    },
    {
      "StopNo": 50380,
      "Name": "EB W 41 AVE FS BALSAM ST",
      "BayNo": "N",
      "City": "VANCOUVER",
      "OnStreet": "W 41 AVE",
      "AtStreet": "BALSAM ST",
      "Latitude": 49.234588,
      "Longitude": -123.160946,
      "WheelchairAccess": 1,
      "Distance": 814,
      "Routes": "041"
    },
    {
      "StopNo": 50381,
      "Name": "EB W 41 AVE FS YEW ST",
      "BayNo": "N",
      "City": "VANCOUVER",
      "OnStreet": "W 41 AVE",
      "AtStreet": "YEW ST",
      "Latitude": 49.234552,
      "Longitude": -123.158131,
      "WheelchairAccess": 1,
      "Distance": 727,
      "Routes": "041"
    },
    {
      "StopNo": 50382,
      "Name": "EB W 41 AVE NS WEST BLVD",
      "BayNo": "N",
      "City": "VANCOUVER",
      "OnStreet": "W 41 AVE",
      "AtStreet": "WEST BLVD",
      "Latitude": 49.234507,
      "Longitude": -123.155784,
      "WheelchairAccess": 1,
      "Distance": 695,
      "Routes": ""
    },
    {
      "StopNo": 50383,
      "Name": "EB W 41 AVE FS MAPLE ST",
      "BayNo": "N",
      "City": "VANCOUVER",
      "OnStreet": "W 41 AVE",
      "AtStreet": "MAPLE ST",
      "Latitude": 49.234437,
      "Longitude": -123.151616,
      "WheelchairAccess": 1,
      "Distance": 1728,
      "Routes": "041"
    },
    {
      "StopNo": 50384,
      "Name": "EB W 41 AVE FS CYPRESS ST",
      "BayNo": "N",
      "City": "VANCOUVER",
      "OnStreet": "W 41 AVE",
      "AtStreet": "CYPRESS ST",
      "Latitude": 49.234394,
      "Longitude": -123.148854,
      "WheelchairAccess": 1,
      "Distance": 1549,
      "Routes": "041"
    },
    {
      "StopNo": 50385,
      "Name": "EB W 41 AVE FS WILTSHIRE ST",
      "BayNo": "N",
      "City": "VANCOUVER",
      "OnStreet": "W 41 AVE",
      "AtStreet": "WILTSHIRE ST",
      "Latitude": 49.234351,
      "Longitude": -123.145952,
      "WheelchairAccess": 0,
      "Distance": 1367,
      "Routes": "041"
    },
    {
      "StopNo": 50386,
      "Name": "EB W 41 AVE FS ADERA ST",
      "BayNo": "N",
      "City": "VANCOUVER",
      "OnStreet": "W 41 AVE",
      "AtStreet": "ADERA ST",
      "Latitude": 49.2343,
      "Longitude": -123.142893,
      "WheelchairAccess": 0,
      "Distance": 1186,
      "Routes": "041"
    },
    {
      "StopNo": 50388,
      "Name": "EB W 41 AVE NS GRANVILLE ST",
      "BayNo": "N",
      "City": "VANCOUVER",
      "OnStreet": "W 41 AVE",
      "AtStreet": "GRANVILLE ST",
      "Latitude": 49.234268,
      "Longitude": -123.140768,
      "WheelchairAccess": 1,
      "Distance": 1070,
      "Routes": "041"
    },
    {
      "StopNo": 50389,
      "Name": "EB W 4 AVE FS COLLINGWOOD ST",
      "BayNo": "N",
      "City": "VANCOUVER",
      "OnStreet": "W 4 AVE",
      "AtStreet": "COLLINGWOOD ST",
      "Latitude": 49.268471,
      "Longitude": -123.181214,
      "WheelchairAccess": 1,
      "Distance": 321,
      "Routes": "004, 007"
    },
    {
      "StopNo": 50390,
      "Name": "EB W 4 AVE FS WATERLOO ST",
      "BayNo": "N",
      "City": "VANCOUVER",
      "OnStreet": "W 4 AVE",
      "AtStreet": "WATERLOO ST",
      "Latitude": 49.268439,
      "Longitude": -123.179277,
      "WheelchairAccess": 1,
      "Distance": 304,
      "Routes": ""
    },
    {
      "StopNo": 50391,
      "Name": "EB W 4 AVE FS TRUTCH ST",
      "BayNo": "N",
      "City": "VANCOUVER",
      "OnStreet": "W 4 AVE",
      "AtStreet": "TRUTCH ST",
      "Latitude": 49.268381,
      "Longitude": -123.17537,
      "WheelchairAccess": 1,
      "Distance": 1518,
      "Routes": ""
    },
    {
      "StopNo": 50392,
      "Name": "EB W 4 AVE FS BAYSWATER ST",
      "BayNo": "N",
      "City": "VANCOUVER",
      "OnStreet": "W 4 AVE",
      "AtStreet": "BAYSWATER ST",
      "Latitude": 49.268314,
      "Longitude": -123.17062,
      "WheelchairAccess": 1,
      "Distance": 1180,
      "Routes": ""
    },
    {
      "StopNo": 50393,
      "Name": "EB W 4 AVE FS MACDONALD ST",
      "BayNo": "N",
      "City": "VANCOUVER",
      "OnStreet": "W 4 AVE",
      "AtStreet": "MACDONALD ST",
      "Latitude": 49.268274,
      "Longitude": -123.167779,
      "WheelchairAccess": 1,
      "Distance": 980,
      "Routes": "004, 007, 014, 044, 084"
    },
    {
      "StopNo": 50394,
      "Name": "EB W 4 AVE FS TRAFALGAR ST",
      "BayNo": "N",
      "City": "VANCOUVER",
      "OnStreet": "W 4 AVE",
      "AtStreet": "TRAFALGAR ST",
      "Latitude": 49.268236,
      "Longitude": -123.164123,
      "WheelchairAccess": 1,
      "Distance": 728,
      "Routes": "004, 007, 014"
    },
    {
      "StopNo": 50395,
      "Name": "EB W 4 AVE FS LARCH ST",
      "BayNo": "N",
      "City": "VANCOUVER",
      "OnStreet": "W 4 AVE",
      "AtStreet": "LARCH ST",
      "Latitude": 49.268194,
      "Longitude": -123.161861,
      "WheelchairAccess": 1,
      "Distance": 578,
      "Routes": ""
    },
    {
      "StopNo": 50396,
      "Name": "EB W 4 AVE FS BALSAM ST",
      "BayNo": "N",
      "City": "VANCOUVER",
      "OnStreet": "W 4 AVE",
      "AtStreet": "BALSAM ST",
      "Latitude": 49.268188,
      "Longitude": -123.159306,
      "WheelchairAccess": 1,
      "Distance": 423,
      "Routes": "004, 007, 014"
    },