{
  "count": 8336,
  "stops": [
    {
      "StopNo": 50737,
      "Name": "DUNBAR LOOP BAY 1",
      "BayNo": "1",
      "City": "VANCOUVER",
      "OnStreet": "DUNBAR LOOP",
      "AtStreet": "BAY 1",
      "Latitude": 49.234424,
      "Longitude": -123.185469,
      "WheelchairAccess": 1,
      "Distance": 811,
      "Routes": "049"
    },
    {
      "StopNo": 50738,
      "Name": "MARPOLE LOOP BAY 1",
      "BayNo": "1",
      "City": "VANCOUVER",
      "OnStreet": "MARPOLE LOOP",
      "AtStreet": "BAY 1",
      "Latitude": 49.202789,
      "Longitude": -123.133802,
      "WheelchairAccess": 1,
      "Distance": 1467,
      "Routes": ""
    },
    {
      "StopNo": 50739,
      "Name": "EB SW MARINE DR NS OAK ST",
      "BayNo": "N",
      "City": "VANCOUVER",
      "OnStreet": "SW MARINE DR",
      "AtStreet": "OAK ST",
      "Latitude": 49.204348,
      "Longitude": -123.130671,
      "WheelchairAccess": 1,
      "Distance": 1267,
      "Routes": "010, 017, 100"
    },
    {
      "StopNo": 50740,
      "Name": "NB OAK CLOVERLEAF FS SW MARINE DR",
      "BayNo": "N",
      "City": "VANCOUVER",
      "OnStreet": "OAK CLOVERLEAF",
      "AtStreet": "SW MARINE DR",
      "Latitude": 49.205921,
      "Longitude": -123.128497,
      "WheelchairAccess": 0,
      "Distance": 1095,
      "Routes": "017"
    },
    {
      "StopNo": 50741,
      "Name": "NB OAK ST FS W 71 AVE",
      "BayNo": "N",
      "City": "VANCOUVER",
      "OnStreet": "OAK ST",
      "AtStreet": "W 71 AVE",
      "Latitude": 49.207161,
      "Longitude": -123.130142,
      "WheelchairAccess": 1,
      "Distance": 953,
      "Routes": ""
    },
    {
      "StopNo": 51944,
      "Name": "SB DUNBAR ST FS W 43 AVE",
      "BayNo": "N",
      "City": "VANCOUVER",
      "OnStreet": "DUNBAR ST",
      "AtStreet": "W 43 AVE",
      "Latitude": 49.232611,
      "Longitude": -123.18547,
      "WheelchairAccess": 1,
      "Distance": 1921,
      "Routes": "049"
    }
  ]
}
